{"url":"https:\/\/sedeaplicaciones.minetur.gob.es\/ServiciosRESTCarburantes\/PreciosCarburantes\/EstacionesTerrestres\/","date":"2018-04-26 19:01:12","stats":{"Nuevo Gasoleo A":{"avg":1.2594942719117,"std":0.073464677232446}},"stations":[{"id":9381,"name":"PREMIRA ENERGIA NORTE, S.L.","lat":42.846028,"lng":-2.509361,"address":"CL MANISITU, 9, 01240, Alegría-Dulantzi, Álava","products":{"Gasoleo A":{"price":1.18,"rank":3}},"rank":3},{"id":13543,"name":"ESTACIONES GB","lat":43.044333,"lng":-2.989111,"address":"POLIGONO ZANKUETA, 0, 01468, Amurrio, Álava","products":{"Nuevo Gasoleo A":{"price":1.21,"rank":2}},"rank":2},{"id":45,"name":"CEPSA","lat":43.031889,"lng":-2.967611,"address":"CARRETERA A-624 KM. 37,8, 01450, Amurrio, Álava","products":{"Nuevo Gasoleo A":{"price":1.26,"rank":2}},"rank":2},{"id":8060,"name":"(SIN RÓTULO)","lat":42.753194,"lng":-2.477917,"address":"CARRETERA A-132 VITORIA-ESTELLA KM. 23, 01120, Arraia-Maeztu, Álava","products":{"Gasolina  98":{"price":1.33,"rank":3}},"rank":3},{"id":43,"name":"CEPSA","lat":42.941417,"lng":-2.639528,"address":"N-240-B km 11,8, 01510, Arrazua-Ubarrundia, Álava","products":{"Nuevo Gasoleo A":{"price":1.26,"rank":2}},"rank":2},{"id":16,"name":"AVIA","lat":42.876861,"lng":-2.616361,"address":"AUTOVIA N-1 km 358, 01520, Arrazua-Ubarrundia, Álava","products":{"Nuevo Gasoleo A":{"price":1.26,"rank":2}},"rank":2},{"id":5,"name":"AVIA ","lat":43.123361,"lng":-3.122528,"address":"AVENIDA DE GARAY, 23 (CARRETERA DE VITORIA A BALMASE km 56), 01474, Artziniega, Álava","products":{"Nuevo Gasoleo A":{"price":1.21,"rank":2}},"rank":2},{"id":12441,"name":"ADS","lat":42.870861,"lng":-2.312056,"address":"CALLE DEIDA, 6, 01250, Asparrena, Álava","products":{"Gasoleo A":{"price":1.14,"rank":3}},"rank":3},{"id":50,"name":"CEPSA","lat":42.866417,"lng":-2.278694,"address":"N-IA km 385,1, 01260, Asparrena, Álava","products":{"Nuevo Gasoleo A":{"price":1.23,"rank":2}},"rank":2},{"id":114,"name":"PETRONOR","lat":42.670222,"lng":-2.357278,"address":"CR A-132  VITORIA-ESTELLA, 38,1, 01110, Campezo\/Kanpezu, Álava","products":{"Nuevo Gasoleo A":{"price":1.25,"rank":2}},"rank":2},{"id":100,"name":"REPSOL","lat":42.878556,"lng":-2.518167,"address":"CARRETERA N-1 KM. 364,4, 01192, Elburgo\/Burgelu, Álava","products":{"Nuevo Gasoleo A":{"price":1.31,"rank":2}},"rank":2},{"id":11732,"name":"EUROCAM","lat":42.823778,"lng":-2.77225,"address":"CALLE TRATADO DE PARIS, 6, 01230, Iruña Oka\/Iruña de Oca, Álava","products":{"Gasolina 95 Protección":{"price":1.17,"rank":3}},"rank":3},{"id":13757,"name":"PETRONIEVES","lat":42.82525,"lng":-2.77475,"address":"CALLE TRATADO DE MAASTRICH, 1, 01230, Iruña Oka\/Iruña de Oca, Álava","products":{"Gasoleo A":{"price":1.06,"rank":3}},"rank":3},{"id":13427,"name":"GAS NATURAL FENOSA","lat":42.824389,"lng":-2.770694,"address":"CALLE A-1 KM 342. POL. IND. SUBILLABIDE (SUVILLAVIDE BIDEA), 2, 01230, Iruña Oka\/Iruña de Oca, Álava","products":{},"rank":3},{"id":51,"name":"REPSOL","lat":42.635194,"lng":-2.849833,"address":"CARRETERA N-124 KM. 35, 01212, Labastida, Álava","products":{"Nuevo Gasoleo A":{"price":1.26,"rank":2}},"rank":2},{"id":83,"name":"REPSOL","lat":42.547639,"lng":-2.578806,"address":"CARRETERA A-124 KM. 65, 01300, Laguardia, Álava","products":{"Nuevo Gasoleo A":{"price":1.22,"rank":2}},"rank":2},{"id":24,"name":"AVIA","lat":42.755583,"lng":-3.04575,"address":"CARRETERA A-2122 KM. 11, 01423, Lantarón, Álava","products":{"Gasolina 95 Protección":{"price":1.17,"rank":3}},"rank":3},{"id":88,"name":"PETRONOR","lat":43.148639,"lng":-2.951361,"address":"CL ARETA, 2, 01400, Llodio, Álava","products":{"Nuevo Gasoleo A":{"price":1.26,"rank":2}},"rank":2},{"id":32,"name":"EROSKI","lat":43.138,"lng":-2.968,"address":"AVENIDA ZUMALACARREGUI (C.C. EROSKI), S\/N, 01400, Llodio, Álava","products":{"Nuevo Gasoleo A":{"price":1.21,"rank":2}},"rank":2},{"id":12419,"name":"E.S. OION","lat":42.490611,"lng":-2.432278,"address":"CARRETERA LOGROÑO KM. 10, 01320, Oyón\/Oion, Álava","products":{"Gasolina  98":{"price":1.4,"rank":3}},"rank":3},{"id":148,"name":"E.S. TOCALU S.L.","lat":42.81125,"lng":-2.901944,"address":"ACCESO A2622, 0, 01420, Ribera Alta, Álava","products":{"Gasolina 95 Protección":{"price":1.25,"rank":3}},"rank":3},{"id":107,"name":"PETRONOR","lat":42.741361,"lng":-2.913222,"address":"AU AP-68, 63,5, 01213, Ribera Baja\/Erribera Beitia, Álava","products":{"Nuevo Gasoleo A":{"price":1.32,"rank":2}},"rank":2},{"id":106,"name":"PETRONOR","lat":42.743111,"lng":-2.913306,"address":"AU AP-68, 63  D, 01213, Ribera Baja\/Erribera Beitia, Álava","products":{"Nuevo Gasoleo A":{"price":1.32,"rank":2}},"rank":2},{"id":33,"name":"EROSKI","lat":42.704639,"lng":-2.917639,"address":"POLIGONO SUI 1, (C.C. EROSKI), 1, 01213, Ribera Baja\/Erribera Beitia, Álava","products":{"Nuevo Gasoleo A":{"price":1.1,"rank":1}},"rank":1},{"id":11651,"name":"EESS ROMPETROL","lat":42.692917,"lng":-2.920667,"address":"AVENIDA ALAVA, 12, 01213, Ribera Baja\/Erribera Beitia, Álava","products":{"Nuevo Gasoleo A":{"price":1.27,"rank":2}},"rank":2},{"id":8374,"name":"SHELL","lat":42.710639,"lng":-2.906944,"address":"CARRETERA N-I KM. 323, 01213, Ribera Baja\/Erribera Beitia, Álava","products":{"Nuevo Gasoleo A":{"price":1.3,"rank":2}},"rank":2},{"id":13950,"name":"ALAVESA","lat":42.852694,"lng":-2.379083,"address":"CALLE FUEROS S\/N, SN, 01200, Salvatierra\/Agurain, Álava","products":{"Gasolina 95 Protección":{"price":1.21,"rank":3}},"rank":3},{"id":66,"name":"GALP","lat":42.848944,"lng":-2.394583,"address":"CARRETERA ANTIGUA NACIONAL I KM. 375, 01200, Salvatierra\/Agurain, Álava","products":{"Nuevo Gasoleo A":{"price":1.26,"rank":2}},"rank":2},{"id":12266,"name":"VALCARCE","lat":42.871167,"lng":-2.314083,"address":"CALLE DEIDA, 4, 01207, San Millán\/Donemiliaga, Álava","products":{"Gasoleo A":{"price":1.2,"rank":3}},"rank":3},{"id":12644,"name":"IS-XXI","lat":42.863583,"lng":-2.324083,"address":"CALLE POLIGONO OKITURRI, 4, 01207, San Millán\/Donemiliaga, Álava","products":{"Gasolina 95 Protección":{"price":1.3,"rank":3}},"rank":3},{"id":11,"name":"ANDAMUR \"SAN ROMAN\"","lat":42.8635,"lng":-2.320361,"address":"POLIGONO OKITURRI, S\/N, 01207, San Millán\/Donemiliaga, Álava","products":{"Gasolina  98":{"price":1.42,"rank":3}},"rank":3},{"id":142,"name":"REPSOL","lat":42.849778,"lng":-2.648306,"address":"CL PORTAL DE ELORRIAGA,17, 01002, Vitoria-Gasteiz, Álava","products":{"Nuevo Gasoleo A":{"price":1.25,"rank":2}},"rank":2},{"id":26,"name":"GALP","lat":42.836778,"lng":-2.698917,"address":"CALLE ALTO DE ARMENTIA, 2, 01007, Vitoria-Gasteiz, Álava","products":{"Nuevo Gasoleo A":{"price":1.25,"rank":2}},"rank":2},{"id":13064,"name":"ARMENTIA","lat":42.837111,"lng":-2.700972,"address":"CALLE ALTO DE ARMENTIA, 10, 01007, Vitoria-Gasteiz, Álava","products":{"Gasolina 95 Protección":{"price":1.21,"rank":3}},"rank":3},{"id":133,"name":"REPSOL","lat":42.842833,"lng":-2.682278,"address":"CL CASTILLA, 30, 01008, Vitoria-Gasteiz, Álava","products":{"Nuevo Gasoleo A":{"price":1.25,"rank":2}},"rank":2},{"id":11010,"name":"CEPSA","lat":42.852417,"lng":-2.709972,"address":"CALLE DUSSELDORF, 1, 01010, Vitoria-Gasteiz, Álava","products":{"Nuevo Gasoleo A":{"price":1.26,"rank":2}},"rank":2},{"id":12416,"name":"AVIA","lat":42.863778,"lng":-2.712722,"address":"CALLE URARTEA, 23, 01010, Vitoria-Gasteiz, Álava","products":{"Nuevo Gasoleo A":{"price":1.26,"rank":2}},"rank":2},{"id":8125,"name":"CEPSA","lat":42.849028,"lng":-2.693722,"address":"AVENIDA MEDITERRANEO, 7, 01010, Vitoria-Gasteiz, Álava","products":{"Nuevo Gasoleo A":{"price":1.26,"rank":2}},"rank":2},{"id":22,"name":"AVIA","lat":42.864944,"lng":-2.7105,"address":"ALIBARRA, 34, 01010, Vitoria-Gasteiz, Álava","products":{"Nuevo Gasoleo A":{"price":1.24,"rank":2}},"rank":2},{"id":12105,"name":"ONAINDIA","lat":42.857194,"lng":-2.716389,"address":"AVENIDA AVDA. DE LOS HUETOS, 56, 01010, Vitoria-Gasteiz, Álava","products":{"Nuevo Gasoleo A":{"price":1.26,"rank":2}},"rank":2},{"id":12997,"name":"EROSKI","lat":42.854694,"lng":-2.708611,"address":"CALLE BREMEN, 6, 01010, Vitoria-Gasteiz, Álava","products":{"Gasolina 95 Protección":{"price":1.2,"rank":3}},"rank":3},{"id":47,"name":"REPSOL","lat":42.838722,"lng":-2.6645,"address":"CL TRIANAS, 17, 01006, Vitoria-Gasteiz, Álava","products":{"Nuevo Gasoleo A":{"price":1.27,"rank":2}},"rank":2},{"id":56,"name":"CEPSA","lat":42.836833,"lng":-2.658222,"address":"CALLE VENTA DE LA ESTRELLA, 3, 01006, Vitoria-Gasteiz, Álava","products":{"Nuevo Gasoleo A":{"price":1.26,"rank":2}},"rank":2},{"id":141,"name":"REPSOL","lat":42.864667,"lng":-2.660222,"address":"AV AVENIDA DEL CANTABRICO,8 -(PG PO, 01013, Vitoria-Gasteiz, Álava","products":{"Nuevo Gasoleo A":{"price":1.25,"rank":2}},"rank":2},{"id":34,"name":"EROSKI","lat":42.860306,"lng":-2.664278,"address":"CALLE ZARAMAGA, 1, 01013, Vitoria-Gasteiz, Álava","products":{"Nuevo Gasoleo A":{"price":1.13,"rank":1}},"rank":1},{"id":10163,"name":"SHELL","lat":42.864694,"lng":-2.653139,"address":"CALLE PORTAL DE BERGARA, 2, 01013, Vitoria-Gasteiz, Álava","products":{"Nuevo Gasoleo A":{"price":1.28,"rank":2}},"rank":2},{"id":9927,"name":"SHELL","lat":42.865278,"lng":-2.661139,"address":"PORTAL DE GAMARRA, 7 (BILBAO), 01013, Vitoria-Gasteiz, Álava","products":{"Nuevo Gasoleo A":{"price":1.29,"rank":2}},"rank":2},{"id":59,"name":"PETRONOR","lat":42.859278,"lng":-2.661694,"address":"CALLE BETOÑO, 1, 01013, Vitoria-Gasteiz, Álava","products":{"Nuevo Gasoleo A":{"price":1.25,"rank":2}},"rank":2},{"id":12104,"name":"ONAINDIA","lat":42.868611,"lng":-2.678833,"address":"CALLE PORTAL DE ARRIAGA, 66, 01013, Vitoria-Gasteiz, Álava","products":{"Nuevo Gasoleo A":{"price":1.26,"rank":2}},"rank":2},{"id":7983,"name":"ESASA","lat":42.855,"lng":-2.672944,"address":"CALLE REYES CATOLICOS, 2, 01013, Vitoria-Gasteiz, Álava","products":{"Nuevo Gasoleo A":{"price":1.19,"rank":2}},"rank":2},{"id":11531,"name":"BP  VITORIA","lat":42.856194,"lng":-2.656861,"address":"CALLE DEBA, 1, 01013, Vitoria-Gasteiz, Álava","products":{"Nuevo Gasoleo A":{"price":1.27,"rank":2}},"rank":2},{"id":136,"name":"PETRONOR","lat":42.857472,"lng":-2.721583,"address":"CL AVENIDA HUETOS, 81, 01195, Vitoria-Gasteiz, Álava","products":{"Nuevo Gasoleo A":{"price":1.26,"rank":2}},"rank":2},{"id":131,"name":"REPSOL","lat":42.852722,"lng":-2.632167,"address":"CARRETERA N-1 KM. 354, 01192, Vitoria-Gasteiz, Álava","products":{"Nuevo Gasoleo A":{"price":1.25,"rank":2}},"rank":2},{"id":13549,"name":"EDP","lat":42.860083,"lng":-2.703306,"address":"CALLE VITORIALANDA, 12, 01193, Vitoria-Gasteiz, Álava","products":{},"rank":3},{"id":42,"name":"CEPSA ","lat":42.818944,"lng":-2.778694,"address":"CARRETERA NACIONAL 1 KM. 341,8, 01195, Vitoria-Gasteiz, Álava","products":{"Nuevo Gasoleo A":{"price":1.29,"rank":2}},"rank":2},{"id":41,"name":"IBAIA ENERGY","lat":42.829528,"lng":-2.722278,"address":"VIAL CTRA. N102 KM347, N102, 01195, Vitoria-Gasteiz, Álava","products":{"Gasolina 95 Protección":{"price":1.22,"rank":3}},"rank":3},{"id":3,"name":"AVIA","lat":42.895667,"lng":-2.702278,"address":"AUTOVIA VITORIA-ATUBE KM. 6, 01196, Vitoria-Gasteiz, Álava","products":{"Nuevo Gasoleo A":{"price":1.26,"rank":2}},"rank":2},{"id":48,"name":"REPSOL","lat":42.877139,"lng":-2.712472,"address":"CR N-1, 350,5, 01196, Vitoria-Gasteiz, Álava","products":{"Nuevo Gasoleo A":{"price":1.29,"rank":2}},"rank":2},{"id":49,"name":"REPSOL","lat":42.878694,"lng":-2.714472,"address":"CR N-1, 350,5, 01196, Vitoria-Gasteiz, Álava","products":{"Nuevo Gasoleo A":{"price":1.29,"rank":2}},"rank":2},{"id":105,"name":"REPSOL","lat":42.966472,"lng":-2.873583,"address":"AU AP-68, 36, 01139, Zuia, Álava","products":{"Nuevo Gasoleo A":{"price":1.32,"rank":2}},"rank":2},{"id":104,"name":"PETRONOR","lat":42.966111,"lng":-2.870083,"address":"AU AP-68, 36, 01139, Zuia, Álava","products":{"Nuevo Gasoleo A":{"price":1.32,"rank":2}},"rank":2},{"id":120,"name":"CEPSA","lat":42.961583,"lng":-2.827722,"address":"N-622 km 20,3, 01130, Zuia, Álava","products":{"Nuevo Gasoleo A":{"price":1.27,"rank":2}},"rank":2},{"id":4375,"name":"Nº 10.935","lat":39.211417,"lng":-1.539167,"address":"AVENIDA CASTILLA LA MANCHA, 26, 02250, Abengibre, Albacete","products":{"Gasolina 95 Protección":{"price":1.27,"rank":3}},"rank":3},{"id":5122,"name":"REPSOL","lat":39.100389,"lng":-1.346083,"address":"CR CM-332, 46,4, 02152, Alatoz, Albacete","products":{"Nuevo Gasoleo A":{"price":1.29,"rank":2}},"rank":2},{"id":12054,"name":"SHELL","lat":39.054694,"lng":-1.832,"address":"CALLE PRINCIPE DE ASTURIAS (POLÍGONO DE ROMICA), 5, 02001, Albacete, Albacete","products":{"Nuevo Gasoleo A":{"price":1.27,"rank":2}},"rank":2},{"id":13933,"name":"GHC ","lat":39.000861,"lng":-1.849833,"address":"CALLE FEDERICO GARCIA LORCA, 1, 02001, Albacete, Albacete","products":{"Gasolina 95 Protección":{"price":1.21,"rank":3}},"rank":3},{"id":10765,"name":"CARREFOUR","lat":38.985667,"lng":-1.8685,"address":"AVENIDA 1º DE MAYO, S\/N, 02001, Albacete, Albacete","products":{"Nuevo Gasoleo A":{"price":1.23,"rank":2}},"rank":2},{"id":4369,"name":"TAMOS","lat":39.003333,"lng":-1.864917,"address":"AVENIDA MENÉNDEZ PIDAL, 58, 02005, Albacete, Albacete","products":{"Nuevo Gasoleo A":{"price":1.27,"rank":2}},"rank":2},{"id":14123,"name":"CEPSA","lat":39.005083,"lng":-1.859917,"address":"PASEO CUBA (LA), 36, 02005, Albacete, Albacete","products":{"Nuevo Gasoleo A":{"price":1.3,"rank":2}},"rank":2},{"id":5195,"name":"REPSOL","lat":38.999722,"lng":-1.854556,"address":"CL PASEO DE LA CUBA, 15, 02005, Albacete, Albacete","products":{"Nuevo Gasoleo A":{"price":1.31,"rank":2}},"rank":2},{"id":5313,"name":"CEPSA","lat":38.98925,"lng":-1.849028,"address":"CALLE HERMANOS FALCÓ, 2, 02002, Albacete, Albacete","products":{"Nuevo Gasoleo A":{"price":1.3,"rank":2}},"rank":2},{"id":5208,"name":"REPSOL","lat":39.027778,"lng":-1.892972,"address":"CR N-301, 244, 02006, Albacete, Albacete","products":{"Nuevo Gasoleo A":{"price":1.32,"rank":2}},"rank":2},{"id":4415,"name":"INPEALSA","lat":38.998222,"lng":-1.869889,"address":"AVDA. DE LOS TOREROS, S\/N, 02006, Albacete, Albacete","products":{"Nuevo Gasoleo A":{"price":1.21,"rank":2}},"rank":2},{"id":5191,"name":"REPSOL","lat":39.012583,"lng":-1.874972,"address":"PG CAMPOLLANO-P. 2-CT, S.N., 02006, Albacete, Albacete","products":{"Nuevo Gasoleo A":{"price":1.32,"rank":2}},"rank":2},{"id":5289,"name":"REPSOL","lat":39.033139,"lng":-1.845083,"address":"CARRETERA N-322 KM. 359, 02006, Albacete, Albacete","products":{"Nuevo Gasoleo A":{"price":1.3,"rank":2}},"rank":2},{"id":5245,"name":"REPSOL","lat":38.994667,"lng":-1.871722,"address":"CARRETERA JAEN KM. 2, 02006, Albacete, Albacete","products":{"Nuevo Gasoleo A":{"price":1.27,"rank":2}},"rank":2},{"id":4372,"name":"LA PULGOSA","lat":38.963972,"lng":-1.875944,"address":"CARRETERA M 3203 KM. 2,6, 02006, Albacete, Albacete","products":{"Nuevo Gasoleo A":{"price":1.2,"rank":2}},"rank":2},{"id":5116,"name":"REPSOL","lat":38.925833,"lng":-2.031861,"address":"CR N-322, 337,8, 02006, Albacete, Albacete","products":{"Nuevo Gasoleo A":{"price":1.29,"rank":2}},"rank":2},{"id":5222,"name":"REPSOL","lat":38.988111,"lng":-1.883694,"address":"CALLE CTRA. DE JAEN, 79, 02006, Albacete, Albacete","products":{"Nuevo Gasoleo A":{"price":1.29,"rank":2}},"rank":2},{"id":4795,"name":"CEPSA","lat":38.984139,"lng":-1.847083,"address":"CALLE ALMANSA, 2, 02006, Albacete, Albacete","products":{"Nuevo Gasoleo A":{"price":1.3,"rank":2}},"rank":2},{"id":5318,"name":"PETROCAMP","lat":38.985194,"lng":-1.866806,"address":"AVENIDA 1º DE MAYO, S\/N, 02006, Albacete, Albacete","products":{"Gasoleo A":{"price":1.14,"rank":3}},"rank":3},{"id":4416,"name":"INPEALSA","lat":38.982167,"lng":-1.853306,"address":"AVDA. DE ESPAÑA (PRÓX. A C\/ SAN JUAN), S\/N, 02006, Albacete, Albacete","products":{"Gasolina 95 Protección":{"price":1.25,"rank":3}},"rank":3},{"id":4428,"name":"EROSKI","lat":38.988972,"lng":-1.847361,"address":"CALLE ALCALDE CONANGLA (C.C. EROSKI), S\/N, 02006, Albacete, Albacete","products":{"Nuevo Gasoleo A":{"price":1.14,"rank":1}},"rank":1},{"id":5129,"name":"INPEALSA","lat":38.929389,"lng":-1.831639,"address":"CARRETERA NACIONAL 301 KM. 256, 02099, Albacete, Albacete","products":{"Gasolina 95 Protección":{"price":1.25,"rank":3}},"rank":3},{"id":11048,"name":"CEPSA","lat":38.970167,"lng":-1.919778,"address":"CARRETERA N-322 KM. 349, 02004, Albacete, Albacete","products":{"Nuevo Gasoleo A":{"price":1.3,"rank":2}},"rank":2},{"id":5272,"name":"REPSOL","lat":38.900944,"lng":-1.994028,"address":"AVENIDA PRINCIPE, 2, 02328, Albacete, Albacete","products":{"Nuevo Gasoleo A":{"price":1.31,"rank":2}},"rank":2},{"id":4394,"name":"LOZANO","lat":38.867556,"lng":-1.9205,"address":"CM. 3203 km 14,1, 02140, Albacete, Albacete","products":{"Gasolina  98":{"price":1.38,"rank":3}},"rank":3},{"id":4797,"name":"CEPSA","lat":38.923889,"lng":-1.915694,"address":"AVDA. ALBACETE, S\/N (AB-2 km 5), 02049, Albacete, Albacete","products":{"Nuevo Gasoleo A":{"price":1.33,"rank":2}},"rank":2},{"id":11087,"name":"REPSOL","lat":39.031528,"lng":-1.891361,"address":"AUTOVIA A-31 KM. 69, 02007, Albacete, Albacete","products":{"Nuevo Gasoleo A":{"price":1.34,"rank":3}},"rank":3},{"id":12763,"name":"FAST & GAS","lat":39.009417,"lng":-1.885694,"address":"AVENIDA 3ª ESQUINA C\/ F Nº3, 3, 02007, Albacete, Albacete","products":{"Gasolina 95 Protección":{"price":1.23,"rank":3}},"rank":3},{"id":4413,"name":"AB OIL","lat":39.021778,"lng":-1.886278,"address":"AVENIDA 0, 48, 02007, Albacete, Albacete","products":{"Gasolina  98":{"price":1.34,"rank":3}},"rank":3},{"id":13852,"name":"BENZINUM","lat":39.060639,"lng":-1.836806,"address":"POLIGONO ROMICA C\/4, 106, 02007, Albacete, Albacete","products":{"Gasolina 95 Protección":{"price":1.25,"rank":3}},"rank":3},{"id":13620,"name":"CEPSA","lat":39.015444,"lng":-1.871361,"address":"POLIGONO CAMPOLLANO, 55, 02007, Albacete, Albacete","products":{"Nuevo Gasoleo A":{"price":1.31,"rank":2}},"rank":2},{"id":9601,"name":"ALCAMPO","lat":39.009639,"lng":-1.878111,"address":"SECTOR PARCELA T-3 LOCAL52, 14, 02007, Albacete, Albacete","products":{"Nuevo Gasoleo A":{"price":1.11,"rank":1}},"rank":1},{"id":4790,"name":"INLOCOR S.L. \"CEPSA\"","lat":38.998111,"lng":-1.831611,"address":"CARRETERA C-M 332 KM. 2,6, 02007, Albacete, Albacete","products":{"Nuevo Gasoleo A":{"price":1.29,"rank":2}},"rank":2},{"id":9546,"name":"LOS ANGELES DE LA MANCHA, S.L.","lat":38.971722,"lng":-1.845278,"address":"MADRID-CARTAGENA km 248,5, 02007, Albacete, Albacete","products":{"Nuevo Gasoleo A":{"price":1.31,"rank":2}},"rank":2},{"id":11297,"name":"LOS ANGELES DE LA MANCHA","lat":38.971778,"lng":-1.845306,"address":"MADRID-CARTAGENA km 248,5, 02007, Albacete, Albacete","products":{"Nuevo Gasoleo A":{"price":1.31,"rank":2}},"rank":2},{"id":4417,"name":"INPEALSA","lat":39.016361,"lng":-1.893944,"address":"AVENIDA PRIMERA, 94, 02007, Albacete, Albacete","products":{"Nuevo Gasoleo A":{"price":1.2,"rank":2}},"rank":2},{"id":12801,"name":"ENERCOM CARBURANTES","lat":39.018,"lng":-1.874333,"address":"POLIGONO AVDA. 3ª, ESQUINA C\/AUTOVIA, 69, 02007, Albacete, Albacete","products":{"Nuevo Gasoleo A":{"price":1.25,"rank":2}},"rank":2},{"id":13930,"name":"VALERO 24H","lat":39.021583,"lng":-1.886556,"address":"AVENIDA POLIGONO CAMPOLLANO AVENIDA 0, 67, 02007, Albacete, Albacete","products":{"Gasolina 95 Protección":{"price":1.24,"rank":3}},"rank":3},{"id":10129,"name":"E.S.","lat":39.012472,"lng":-1.889417,"address":"POLIGONO CAMPOLLANO C\/.F, 13, 02007, Albacete, Albacete","products":{"Gasoleo A":{"price":1.13,"rank":3}},"rank":3},{"id":13369,"name":"GMOIL","lat":39.022139,"lng":-1.882056,"address":"AVENIDA PRIMERA, S\/N, 02007, Albacete, Albacete","products":{"Gasolina 95 Protección":{"price":1.17,"rank":3}},"rank":3},{"id":5173,"name":"CEPSA","lat":39.059806,"lng":-1.93325,"address":"AUTOVIA A-30 KM. 239,4, 02080, Albacete, Albacete","products":{"Nuevo Gasoleo A":{"price":1.3,"rank":2}},"rank":2},{"id":5174,"name":"CEPSA","lat":39.060528,"lng":-1.933056,"address":"AUTOVIA A-30 KM. 239,4, 02080, Albacete, Albacete","products":{"Nuevo Gasoleo A":{"price":1.31,"rank":2}},"rank":2},{"id":4794,"name":"CEPSA","lat":38.646833,"lng":-1.978917,"address":"CM-3203 km 41,9, 02124, Alcadozo, Albacete","products":{"Nuevo Gasoleo A":{"price":1.29,"rank":2}},"rank":2},{"id":8097,"name":"EL JUCAR","lat":39.203167,"lng":-1.433222,"address":"CARRETERA CM-3201 47,1 KM. 47,1, 02210, Alcalá del Júcar, Albacete","products":{"Gasolina 95 Protección":{"price":1.3,"rank":3}},"rank":3},{"id":5241,"name":"CAMPSA","lat":38.673111,"lng":-2.492222,"address":"CR N-322 276,5, 02300, Alcaraz, Albacete","products":{"Nuevo Gasoleo A":{"price":1.29,"rank":2}},"rank":2},{"id":5134,"name":"REPSOL","lat":38.808528,"lng":-2.327639,"address":"CR N-322, 302,8, 02330, Alcaraz, Albacete","products":{"Nuevo Gasoleo A":{"price":1.29,"rank":2}},"rank":2},{"id":4788,"name":"CEPSA","lat":38.859944,"lng":-1.08475,"address":"AVENIDA CIRCUNVALACION, 26, 02640, Almansa, Albacete","products":{"Nuevo Gasoleo A":{"price":1.3,"rank":2}},"rank":2},{"id":4798,"name":"CEPSA","lat":38.871556,"lng":-1.108,"address":"AVENIDA MADRID, 11, 02640, Almansa, Albacete","products":{"Nuevo Gasoleo A":{"price":1.3,"rank":2}},"rank":2},{"id":4799,"name":"CEPSA","lat":38.878278,"lng":-1.143722,"address":"AUTOVIA A-31 KM. 143,350, 02640, Almansa, Albacete","products":{"Nuevo Gasoleo A":{"price":1.3,"rank":2}},"rank":2},{"id":4383,"name":"SHELL","lat":38.875028,"lng":-1.17575,"address":"AUTOVIA A-31 KM. 140, 02640, Almansa, Albacete","products":{"Nuevo Gasoleo A":{"price":1.3,"rank":2}},"rank":2},{"id":4877,"name":"REPSOL","lat":38.874583,"lng":-1.100528,"address":"CL AVDA. DE AYORA, S.N. A, 02640, Almansa, Albacete","products":{"Nuevo Gasoleo A":{"price":1.31,"rank":2}},"rank":2},{"id":4872,"name":"CEPSA","lat":38.879167,"lng":-1.098889,"address":"AVENIDA CIRCUNVALACION, 9, 02640, Almansa, Albacete","products":{"Nuevo Gasoleo A":{"price":1.3,"rank":2}},"rank":2},{"id":14129,"name":"GASOLINERA LOW COST PENADES","lat":38.850278,"lng":-1.027694,"address":"CARRETERA N-430 BADAJOZ A VALENCIA KM. 594, 02640, Almansa, Albacete","products":{"Gasolina 95 Protección":{"price":1.25,"rank":3}},"rank":3},{"id":11931,"name":"GASÓLEOS S. ALMANSA","lat":38.874083,"lng":-1.089278,"address":"AVENIDA CIRCUNVALACION, 17, 02640, Almansa, Albacete","products":{"Gasoleo A":{"price":1.16,"rank":3}},"rank":3},{"id":4396,"name":"E.S. BALAZOTE S.L.","lat":38.878028,"lng":-2.150639,"address":"N-322 km 326,2, 02320, Balazote, Albacete","products":{"Gasolina 95 Protección":{"price":1.29,"rank":3}},"rank":3},{"id":9254,"name":"COABA","lat":39.051236,"lng":-2.192996,"address":"CAMINO DE LOS GONZALOS SN, 02639, Barrax, Albacete","products":{"Gasoleo A":{"price":1.16,"rank":3}},"rank":3},{"id":4399,"name":"E.S. BARRAX S.L.","lat":39.043139,"lng":-2.195139,"address":"CALLE ALBACETE, 57, 02639, Barrax, Albacete","products":{"Gasolina  98":{"price":1.4,"rank":3}},"rank":3},{"id":11364,"name":"MEROIL","lat":38.516417,"lng":-2.617667,"address":"CARRETERA BIENSERVIDA KM. 10, 02360, Bienservida, Albacete","products":{"Gasolina 95 Protección":{"price":1.27,"rank":3}},"rank":3},{"id":5269,"name":"REPSOL","lat":38.876111,"lng":-1.331611,"address":"CR N-430, 566,3, 02691, Bonete, Albacete","products":{"Nuevo Gasoleo A":{"price":1.33,"rank":2}},"rank":2},{"id":5268,"name":"REPSOL","lat":38.875861,"lng":-1.3315,"address":"AUTOVIA A-31 KM. 126, 02691, Bonete, Albacete","products":{"Nuevo Gasoleo A":{"price":1.33,"rank":2}},"rank":2},{"id":5282,"name":"CAMPSA","lat":38.953361,"lng":-2.535056,"address":"CALLE CARRETERA MUNERA, 2, 02610, Bonillo (El), Albacete","products":{"Nuevo Gasoleo A":{"price":1.31,"rank":2}},"rank":2},{"id":4390,"name":"GASOLINERAS DEL REY","lat":39.100792,"lng":-1.560857,"address":"AVDA. ALBACETE, 33, 02151, Casas de Juan Núñez, Albacete","products":{"Gasolina 95 Protección":{"price":1.29,"rank":3}},"rank":3},{"id":5204,"name":"CARMONED","lat":39.283944,"lng":-1.477806,"address":"CARRETERA ALBACETE KM. 94, 02200, Casas-Ibáñez, Albacete","products":{"Gasolina  98":{"price":1.41,"rank":3}},"rank":3},{"id":12471,"name":"TRANSPORTES CAUDETE","lat":38.710861,"lng":-0.974778,"address":"CARRETERA N-344 KM. 114,500, 02660, Caudete, Albacete","products":{"Gasoleo A":{"price":1.12,"rank":3}},"rank":3},{"id":4820,"name":"REPSOL","lat":38.756417,"lng":-0.955833,"address":"CR N-330, 71,4, 02660, Caudete, Albacete","products":{"Nuevo Gasoleo A":{"price":1.33,"rank":2}},"rank":2},{"id":5142,"name":"PARGA I","lat":38.727472,"lng":-0.943,"address":"CR N-344 DIRC.VALENCIA, KM.  118.3, 02660, Caudete, Albacete","products":{"Nuevo Gasoleo A":{"price":1.31,"rank":2}},"rank":2},{"id":5323,"name":"GALP","lat":38.708944,"lng":-0.982111,"address":"AVENIDA VALENCIA DE, 16, 02660, Caudete, Albacete","products":{"Nuevo Gasoleo A":{"price":1.27,"rank":2}},"rank":2},{"id":9293,"name":"BP OIL","lat":38.721917,"lng":-0.933861,"address":"AUTOVIA A-31 KM. 172, 02660, Caudete, Albacete","products":{"Nuevo Gasoleo A":{"price":1.3,"rank":2}},"rank":2},{"id":14203,"name":"VILA Y FAYOS ","lat":38.711694,"lng":-0.971639,"address":"CARRETERA D-12 ESTACION KM. 32, 02660, Caudete, Albacete","products":{"Gasolina 95 Protección":{"price":1.24,"rank":3}},"rank":3},{"id":5170,"name":"REPSOL","lat":38.937583,"lng":-1.758,"address":"AUTOVIA A-31 KM. 86, 02520, Chinchilla de Monte-Aragón, Albacete","products":{"Nuevo Gasoleo A":{"price":1.33,"rank":2}},"rank":2},{"id":5171,"name":"REPSOL","lat":38.938611,"lng":-1.757611,"address":"AUTOVIA A-31 KM. 86, 02520, Chinchilla de Monte-Aragón, Albacete","products":{"Nuevo Gasoleo A":{"price":1.33,"rank":2}},"rank":2},{"id":5230,"name":"PETRONOR","lat":38.915972,"lng":-1.726278,"address":"Ctra. AB-430 KM 530,3, 02520, Chinchilla de Monte-Aragón, Albacete","products":{"Nuevo Gasoleo A":{"price":1.32,"rank":2}},"rank":2},{"id":4786,"name":"CEPSA","lat":38.921583,"lng":-1.583694,"address":"CARRETERA NACIONAL 430 AUTOVIA KM. 548,5, 02695, Chinchilla de Monte-Aragón, Albacete","products":{"Nuevo Gasoleo A":{"price":1.31,"rank":2}},"rank":2},{"id":4800,"name":"CEPSA","lat":38.898306,"lng":-1.502806,"address":"AUTOVIA A31 KM. 111, 02695, Chinchilla de Monte-Aragón, Albacete","products":{"Nuevo Gasoleo A":{"price":1.32,"rank":2}},"rank":2},{"id":5255,"name":"CAMPSA","lat":38.451306,"lng":-2.044778,"address":"CL BOLEA, 36 (CM-412 km 235,65), 02430, Elche de la Sierra, Albacete","products":{"Nuevo Gasoleo A":{"price":1.32,"rank":2}},"rank":2},{"id":4422,"name":"Nº 7374","lat":38.689833,"lng":-1.433306,"address":"AVDA. DOCTOR PEREZ GIL, 25, 02651, Fuente-Álamo, Albacete","products":{"Nuevo Gasoleo A":{"price":1.19,"rank":2}},"rank":2},{"id":4403,"name":"ES SAN ANTONIOABAD. FUENTEALBILLA","lat":39.269972,"lng":-1.548639,"address":"N-322 (CORDOBA-VALENCIA) km 399, 02260, Fuentealbilla, Albacete","products":{"Gasolina 95 Protección":{"price":1.25,"rank":3}},"rank":3},{"id":4841,"name":"REPSOL","lat":39.086278,"lng":-1.963944,"address":"CR A-31, 235, 02110, Gineta (La), Albacete","products":{"Nuevo Gasoleo A":{"price":1.34,"rank":3}},"rank":3},{"id":5237,"name":"CAMPSA","lat":39.107667,"lng":-1.990194,"address":"CR N-301, 231,8, 02110, Gineta (La), Albacete","products":{"Nuevo Gasoleo A":{"price":1.32,"rank":2}},"rank":2},{"id":4789,"name":"CEPSA","lat":39.238111,"lng":-1.635111,"address":"CARRETERA NACIONAL 322 KM. 390, 02253, Golosalvo, Albacete","products":{"Nuevo Gasoleo A":{"price":1.29,"rank":2}},"rank":2},{"id":11181,"name":"HELLIN GAS S.L.","lat":38.495972,"lng":-1.636389,"address":"CARRETERA TORREUCHEA KM. 1, 02400, Hellín, Albacete","products":{"Nuevo Gasoleo A":{"price":1.27,"rank":2}},"rank":2},{"id":4831,"name":"PETRONOR","lat":38.506806,"lng":-1.687833,"address":"CARRETERA MURCIA KM. 33, 02400, Hellín, Albacete","products":{"Nuevo Gasoleo A":{"price":1.31,"rank":2}},"rank":2},{"id":4869,"name":"CARBURANTES GARCIA LOZANO","lat":38.528306,"lng":-1.706972,"address":"CARRETERA POZOHONDO KM. 0,900, 02400, Hellín, Albacete","products":{"Gasolina 95 Protección":{"price":1.26,"rank":3}},"rank":3},{"id":14148,"name":"MULTSER-OIL","lat":38.502528,"lng":-1.677694,"address":"CARRETERA N 301-A KM. S\/N, 02400, Hellín, Albacete","products":{"Gasolina 95 Protección":{"price":1.22,"rank":3}},"rank":3},{"id":11142,"name":"IDS","lat":38.545111,"lng":-1.705389,"address":"POLIGONO SAN RAFAEL 3ª FASE, SN, 02400, Hellín, Albacete","products":{"Gasoleo A":{"price":1.26,"rank":3}},"rank":3},{"id":13229,"name":"PETROGAS","lat":38.532389,"lng":-1.694889,"address":"CARRETERA CM 412 KM. 273, 02400, Hellín, Albacete","products":{"Gasolina 95 Protección":{"price":1.22,"rank":3}},"rank":3},{"id":4806,"name":"REPSOL","lat":38.502889,"lng":-1.714556,"address":"CL CARRETERA JAEN, 47, 02400, Hellín, Albacete","products":{"Nuevo Gasoleo A":{"price":1.31,"rank":2}},"rank":2},{"id":5135,"name":"REPSOL","lat":38.524444,"lng":-1.703056,"address":"CARRETERA N-301 KM. 316, 02400, Hellín, Albacete","products":{"Nuevo Gasoleo A":{"price":1.31,"rank":2}},"rank":2},{"id":5113,"name":"PETRONOR","lat":38.641722,"lng":-1.844139,"address":"CARRETERA CM 313 KM. 72,4, 02400, Hellín, Albacete","products":{"Nuevo Gasoleo A":{"price":1.19,"rank":2}},"rank":2},{"id":4423,"name":"BP","lat":38.511222,"lng":-1.696972,"address":"MELCHOR  DE MACANAZ, 66, 02400, Hellín, Albacete","products":{"Nuevo Gasoleo A":{"price":1.31,"rank":2}},"rank":2},{"id":5312,"name":"CEPSA","lat":38.417306,"lng":-1.571667,"address":"CARRETERA A-30 KM. 328,2, 02400, Hellín, Albacete","products":{"Nuevo Gasoleo A":{"price":1.3,"rank":2}},"rank":2},{"id":10575,"name":"GALP","lat":38.46425,"lng":-1.596722,"address":"AUTOVIA A-30 KM. 322,5, 02400, Hellín, Albacete","products":{"Nuevo Gasoleo A":{"price":1.29,"rank":2}},"rank":2},{"id":10171,"name":"E.S. MADRIGUERAS ","lat":38.526528,"lng":-1.708944,"address":"PARAJE DE LA FUENTE, S\/N, 02400, Hellín, Albacete","products":{"Gasoleo A":{"price":1.16,"rank":3}},"rank":3},{"id":5163,"name":"REPSOL","lat":38.491861,"lng":-1.741111,"address":"CARRETERA DE HELLIN KM. 104, 02420, Hellín, Albacete","products":{"Nuevo Gasoleo A":{"price":1.31,"rank":2}},"rank":2},{"id":4393,"name":"E.S. SIERRA DEL SEGURA","lat":38.356556,"lng":-2.111056,"address":"CARRETERA A 45 KM. 39,8, 02434, Letur, Albacete","products":{"Gasolina  98":{"price":1.39,"rank":3}},"rank":3},{"id":4371,"name":"E.S. VIRGEN DE LA CRUZ","lat":38.948472,"lng":-2.354861,"address":"PASEO LIBERTAD, 62, 02160, Lezuza, Albacete","products":{"Gasolina 95 Protección":{"price":1.3,"rank":3}},"rank":3},{"id":10983,"name":"E.S. MADRIGUERAS","lat":39.226611,"lng":-1.800611,"address":"CARRETERA C-3222 KM. 9, 02230, Madrigueras, Albacete","products":{"Gasolina 95 Protección":{"price":1.27,"rank":3}},"rank":3},{"id":5232,"name":"REPSOL","lat":39.233056,"lng":-1.799472,"address":"AVENIDA LEVANTE, 15, 02230, Madrigueras, Albacete","products":{"Nuevo Gasoleo A":{"price":1.29,"rank":2}},"rank":2},{"id":5277,"name":"REPSOL","lat":39.276056,"lng":-2.330333,"address":"CARRERA N-301, 195,2, 02620, Minaya, Albacete","products":{"Nuevo Gasoleo A":{"price":1.29,"rank":2}},"rank":2},{"id":5202,"name":"LOS CORRALES","lat":38.785917,"lng":-1.33025,"address":"CALLE CAPATAZ SANTIAGO, 23, 02650, Montealegre del Castillo, Albacete","products":{"Gasolina 95 Protección":{"price":1.29,"rank":3}},"rank":3},{"id":5213,"name":"INPEALSA","lat":39.043806,"lng":-2.485028,"address":"CALLE POZO (EL), 106, 02612, Munera, Albacete","products":{"Nuevo Gasoleo A":{"price":1.2,"rank":2}},"rank":2},{"id":5265,"name":"CAMPSA","lat":38.151167,"lng":-2.293444,"address":"CR AB-702, 45,6, 02530, Nerpio, Albacete","products":{"Gasolina  98":{"price":1.39,"rank":3}},"rank":3},{"id":10619,"name":"CAMPSA","lat":38.622944,"lng":-1.497667,"address":"CRTA.CM km KM297,5, 02652, Ontur, Albacete","products":{"Nuevo Gasoleo A":{"price":1.3,"rank":2}},"rank":2},{"id":11340,"name":"ONTALBA S. COOP DE C-LM","lat":38.609556,"lng":-1.508333,"address":"CAMINO DE HELLIN S\/N, 02652, Ontur, Albacete","products":{"Gasoleo A":{"price":1.08,"rank":3}},"rank":3},{"id":5270,"name":"REPSOL","lat":38.967167,"lng":-2.7515,"address":"CARRETERA N 430 KM. 429, 02611, Ossa de Montiel, Albacete","products":{"Gasolina  98":{"price":1.43,"rank":3}},"rank":3},{"id":4791,"name":"CEPSA","lat":38.828806,"lng":-1.553694,"address":"CARRETERA FUENTEALAMO KM. 36, 02692, Pétrola, Albacete","products":{"Gasolina 95 Protección":{"price":1.32,"rank":3}},"rank":3},{"id":11977,"name":"E.S. LEDAÑA ","lat":38.805278,"lng":-1.736389,"address":"CALLE ANTONIO MACHADO, 2, 02099, Pozo Cañada, Albacete","products":{"Gasoleo A":{"price":1.14,"rank":3}},"rank":3},{"id":5238,"name":"REPSOL","lat":38.717556,"lng":-1.91075,"address":"CR CM-313 61,7, 02141, Pozohondo, Albacete","products":{"Gasolina 95 Protección":{"price":1.32,"rank":3}},"rank":3},{"id":12334,"name":"SAT SANTA CRUZ DE POZO LORENTE","lat":39.081278,"lng":-1.512611,"address":"POLIGONO PARAJE RECIAL, 2, 02154, Pozo-Lorente, Albacete","products":{"Gasoleo A":{"price":1.12,"rank":3}},"rank":3},{"id":4410,"name":"INLOCOR S.L.","lat":38.804722,"lng":-2.098778,"address":"CARRETERA M 313 KM. 50, 02327, Pozuelo, Albacete","products":{"Gasolina  98":{"price":1.4,"rank":3}},"rank":3},{"id":4793,"name":"CEPSA","lat":38.493528,"lng":-2.411444,"address":"CARRETERA CM-412 KM. 199,5, 02450, Riópar, Albacete","products":{"Nuevo Gasoleo A":{"price":1.3,"rank":2}},"rank":2},{"id":4370,"name":"CANOIL","lat":38.771194,"lng":-2.450028,"address":"CARRETERA NACIONAL 320 KM. 289, 02340, Robledo, Albacete","products":{"Gasolina 95 Protección":{"price":1.26,"rank":3}},"rank":3},{"id":5162,"name":"CAMPSA","lat":39.213722,"lng":-2.156667,"address":"CARRETERA CM-3114 KM. 0,1, 02630, Roda (La), Albacete","products":{"Gasolina  98":{"price":1.43,"rank":3}},"rank":3},{"id":13480,"name":"GASPLAY","lat":39.218389,"lng":-2.158028,"address":"CARRETERA AB101 KM. 0,2, 02630, Roda (La), Albacete","products":{"Gasolina 95 Protección":{"price":1.22,"rank":3}},"rank":3},{"id":4891,"name":"CASA JUANITO RESTAURANTE","lat":39.212361,"lng":-2.171028,"address":"CR NACIONAL 301, KM 209,5, 02630, Roda (La), Albacete","products":{"Nuevo Gasoleo A":{"price":1.3,"rank":2}},"rank":2},{"id":11427,"name":"REPSOL","lat":39.212972,"lng":-2.166444,"address":"AUTOVIA A-31 KM. 40, 02630, Roda (La), Albacete","products":{"Nuevo Gasoleo A":{"price":1.34,"rank":3}},"rank":3},{"id":11279,"name":"CEPSA","lat":39.212861,"lng":-2.171778,"address":"MARTIRES 209, 02630, Roda (La), Albacete","products":{"Nuevo Gasoleo A":{"price":1.3,"rank":2}},"rank":2},{"id":4894,"name":"REPSOL","lat":39.201667,"lng":-2.149,"address":"CALLE ALFREDO ATIENZA, 156, 02630, Roda (La), Albacete","products":{"Nuevo Gasoleo A":{"price":1.32,"rank":2}},"rank":2},{"id":5317,"name":"GALP","lat":39.143972,"lng":-2.05125,"address":"CARRETERA A-31 KM. 50, 02630, Roda (La), Albacete","products":{"Nuevo Gasoleo A":{"price":1.34,"rank":3}},"rank":3},{"id":5316,"name":"GALP","lat":39.225,"lng":-2.186083,"address":"AUTOVIA A-31 KM. 34,50, 02630, Roda (La), Albacete","products":{"Nuevo Gasoleo A":{"price":1.34,"rank":3}},"rank":3},{"id":4392,"name":"NAVARRO Y VALERO, S.L","lat":38.331361,"lng":-1.981861,"address":"AVENIDA DE LA PAZ, 3, 02435, Socovos, Albacete","products":{"Gasolina  98":{"price":1.42,"rank":3}},"rank":3},{"id":5284,"name":"REPSOL","lat":39.25975,"lng":-1.911389,"address":"CL AVENIDA DE LA RODA, 1, 02100, Tarazona de la Mancha, Albacete","products":{"Nuevo Gasoleo A":{"price":1.29,"rank":2}},"rank":2},{"id":12953,"name":"LA GAVIOTA GASOLINERAS","lat":39.256194,"lng":-1.912194,"address":"AVENIDA ALBACETE, 35, 02100, Tarazona de la Mancha, Albacete","products":{"Gasolina 95 Protección":{"price":1.19,"rank":3}},"rank":3},{"id":13778,"name":"NTRA. SRA. DE LA ENCARNACION","lat":38.601722,"lng":-1.680833,"address":"AVENIDA GUARDIA CIVIL, 162, 02500, Tobarra, Albacete","products":{"Gasolina 95 Protección":{"price":1.2,"rank":3}},"rank":3},{"id":5219,"name":"REPSOL","lat":38.602278,"lng":-1.680917,"address":"AVENIDA GUARDIA CIVIL, 233, 02500, Tobarra, Albacete","products":{"Nuevo Gasoleo A":{"price":1.3,"rank":2}},"rank":2},{"id":11399,"name":"E.S. TOBARRA","lat":38.594639,"lng":-1.685417,"address":"AVENIDA GUARDIA CIVIL, 114, 02500, Tobarra, Albacete","products":{"Nuevo Gasoleo A":{"price":1.29,"rank":2}},"rank":2},{"id":12786,"name":"SAN ROQUE DE TOBARRA S. COOP. DE C-LM","lat":38.603306,"lng":-1.694083,"address":"CAMINO CAMINO DEL GUIJARRAL, 0, 02500, Tobarra, Albacete","products":{"Gasoleo A":{"price":1.11,"rank":3}},"rank":3},{"id":4391,"name":"Nº 15.526","lat":39.131944,"lng":-1.679528,"address":"C\/. FEDERICO GARCIA LORCA, 47, 02150, Valdeganga, Albacete","products":{"Gasolina  98":{"price":1.38,"rank":3}},"rank":3},{"id":4895,"name":"RESTAURANTE LAS POLAS","lat":39.302389,"lng":-2.067639,"address":"CARRETERA CM-3114 KM. 12,7, 02636, Villalgordo del Júcar, Albacete","products":{"Gasolina 95 Protección":{"price":1.25,"rank":3}},"rank":3},{"id":5258,"name":"REPSOL","lat":39.366861,"lng":-1.592778,"address":"CARRETERA CM-3201 KM. 22,70, 02270, Villamalea, Albacete","products":{"Nuevo Gasoleo A":{"price":1.27,"rank":2}},"rank":2},{"id":4893,"name":"REPSOL","lat":38.581722,"lng":-2.626222,"address":"CR N-322, 258,8, 02350, Villapalacios, Albacete","products":{"Nuevo Gasoleo A":{"price":1.29,"rank":2}},"rank":2},{"id":11797,"name":"REPSOL","lat":39.258778,"lng":-2.586778,"address":"AUTOVIA A-43 KM. 129, 02600, Villarrobledo, Albacete","products":{"Nuevo Gasoleo A":{"price":1.3,"rank":2}},"rank":2},{"id":5167,"name":"REPSOL","lat":39.293722,"lng":-2.567139,"address":"CARRETERA NACIONAL 310 KM. 137,7, 02600, Villarrobledo, Albacete","products":{"Nuevo Gasoleo A":{"price":1.28,"rank":2}},"rank":2},{"id":5123,"name":"REPSOL","lat":39.257528,"lng":-2.613778,"address":"CARRETERA OSSA DE MONTIEL KM. 21, 02600, Villarrobledo, Albacete","products":{"Nuevo Gasoleo A":{"price":1.28,"rank":2}},"rank":2},{"id":5305,"name":"REPSOL","lat":39.278222,"lng":-2.602028,"address":"CALLE DOS DE MAYO, 167, 02600, Villarrobledo, Albacete","products":{"Nuevo Gasoleo A":{"price":1.27,"rank":2}},"rank":2},{"id":4785,"name":"CEPSA","lat":39.261472,"lng":-2.599417,"address":"AVENIDA REYES CATOLICOS, 26, 02600, Villarrobledo, Albacete","products":{"Nuevo Gasoleo A":{"price":1.3,"rank":2}},"rank":2},{"id":4368,"name":"ESTACIÓN DE SERVICIO AVENIDA DEL OESTE","lat":39.27225,"lng":-2.617083,"address":"CARRETERA DE LAS MESAS KM. 005, 02600, Villarrobledo, Albacete","products":{"Nuevo Gasoleo A":{"price":1.24,"rank":2}},"rank":2},{"id":12146,"name":"CEPSA","lat":39.205194,"lng":-2.708528,"address":"AUTOVIA A-43 KM. 390, 02600, Villarrobledo, Albacete","products":{"Nuevo Gasoleo A":{"price":1.3,"rank":2}},"rank":2},{"id":5184,"name":"CEPSA","lat":39.198,"lng":-2.713722,"address":"CARRETERA N-310 KM. 120,5, 02600, Villarrobledo, Albacete","products":{"Nuevo Gasoleo A":{"price":1.3,"rank":2}},"rank":2},{"id":4442,"name":"CARREFOUR","lat":39.285722,"lng":-2.579639,"address":"AVENIDA REYES CATÓLICOS (APARCAMIENTO DEL CARREFOUR), S\/N, 02600, Villarrobledo, Albacete","products":{"Nuevo Gasoleo A":{"price":1.23,"rank":2}},"rank":2},{"id":11976,"name":"BP OIL ESPAÑA, S.A.","lat":39.277056,"lng":-2.591722,"address":"AVENIDA REYES CATOLICOS, 133, 02600, Villarrobledo, Albacete","products":{"Nuevo Gasoleo A":{"price":1.26,"rank":2}},"rank":2},{"id":12015,"name":"VEN Y VEN OIL","lat":39.276944,"lng":-2.590028,"address":"AVENIDA REYES CATOLICOS, S\/N, 02600, Villarrobledo, Albacete","products":{"Nuevo Gasoleo A":{"price":1.22,"rank":2}},"rank":2},{"id":5327,"name":"GALP","lat":39.272056,"lng":-2.594111,"address":"AVENIDA REYES CATÓLICOS, 108, 02600, Villarrobledo, Albacete","products":{"Nuevo Gasoleo A":{"price":1.27,"rank":2}},"rank":2},{"id":4439,"name":"CAMPSA","lat":38.368278,"lng":-2.30225,"address":"CARRETERA CM 3206 KM. 27,4, 02480, Yeste, Albacete","products":{},"rank":3},{"id":4796,"name":"CEPSA","lat":38.368667,"lng":-2.314667,"address":"CARRETERA DE HELLIN KM. 42, 02480, Yeste, Albacete","products":{"Nuevo Gasoleo A":{"price":1.3,"rank":2}},"rank":2},{"id":9478,"name":"VALCARCE","lat":38.429417,"lng":-0.66225,"address":"CARRETERA AGOST-NOVELDA KM 2 KM. 2, 03698, Agost, Alicante","products":{"Nuevo Gasoleo A":{"price":1.29,"rank":2}},"rank":2},{"id":3683,"name":"PETRONOR","lat":38.434417,"lng":-0.63725,"address":"CARRETERA SAN VICENTE - AGOST KM. 11, 03698, Agost, Alicante","products":{"Nuevo Gasoleo A":{"price":1.28,"rank":2}},"rank":2},{"id":11305,"name":"GALP","lat":38.408861,"lng":-0.599444,"address":"AUTOPISTA AP 7 KM. 696, 03698, Agost, Alicante","products":{"Nuevo Gasoleo A":{"price":1.35,"rank":3}},"rank":3},{"id":11306,"name":"GALP","lat":38.406528,"lng":-0.599972,"address":"AUTOPISTA AP 7 KM. 696, 03698, Agost, Alicante","products":{"Nuevo Gasoleo A":{"price":1.35,"rank":3}},"rank":3},{"id":3692,"name":"REPSOL","lat":38.175028,"lng":-0.854056,"address":"CARRETERA CATRAL-ALBATERA KM. 4,2, 03340, Albatera, Alicante","products":{"Nuevo Gasoleo A":{"price":1.32,"rank":2}},"rank":2},{"id":3588,"name":"REPSOL","lat":38.165222,"lng":-0.89475,"address":"CARRETERA N-340 KM. 696,7, 03340, Albatera, Alicante","products":{"Nuevo Gasoleo A":{"price":1.3,"rank":2}},"rank":2},{"id":3589,"name":"REPSOL","lat":38.199417,"lng":-0.848722,"address":"N-340 km 696,7, 03340, Albatera, Alicante","products":{"Nuevo Gasoleo A":{"price":1.3,"rank":2}},"rank":2},{"id":3565,"name":"CEPSA","lat":38.199389,"lng":-0.848833,"address":"CARRETERA N-340 KM. 702,1, 03340, Albatera, Alicante","products":{"Nuevo Gasoleo A":{"price":1.28,"rank":2}},"rank":2},{"id":14191,"name":"SUVER GASOLEOS ","lat":38.168111,"lng":-0.889167,"address":"CALLE POLIGONO INDUSTRIAL MOS DEL BOU, CALLE EL ESPARTO, 5, 03340, Albatera, Alicante","products":{"Nuevo Gasoleo A":{"price":1.24,"rank":2}},"rank":2},{"id":14115,"name":"PETROMAX","lat":38.689389,"lng":-0.480139,"address":"CALLE ALICANTE, 58, 03801, Alcoy\/Alcoi, Alicante","products":{"Nuevo Gasoleo A":{"price":1.19,"rank":2}},"rank":2},{"id":9298,"name":"SHELL","lat":38.688639,"lng":-0.479611,"address":"CALLE ALICANTE, 62, 03801, Alcoy\/Alcoi, Alicante","products":{"Nuevo Gasoleo A":{"price":1.26,"rank":2}},"rank":2},{"id":13370,"name":"MAS OIL ALCOY","lat":38.689083,"lng":-0.479694,"address":"CALLE ALICANTE, 62, 03801, Alcoy\/Alcoi, Alicante","products":{"Gasolina 95 Protección":{"price":1.26,"rank":3}},"rank":3},{"id":3713,"name":"GALP","lat":38.695083,"lng":-0.477972,"address":"Alicante, 1 - P.I. Beniata, 03800, Alcoy\/Alcoi, Alicante","products":{"Nuevo Gasoleo A":{"price":1.21,"rank":2}},"rank":2},{"id":3728,"name":"GALP","lat":38.683389,"lng":-0.471306,"address":"N-340 km 131,000, 03800, Alcoy\/Alcoi, Alicante","products":{"Nuevo Gasoleo A":{"price":1.21,"rank":2}},"rank":2},{"id":3475,"name":"REPSOL","lat":38.714361,"lng":-0.462528,"address":"PG COTES BAIXES,CALLE C,PARC.1, 0, 03800, Alcoy\/Alcoi, Alicante","products":{"Nuevo Gasoleo A":{"price":1.3,"rank":2}},"rank":2},{"id":11428,"name":"REPSOL","lat":38.70875,"lng":-0.472556,"address":"AVENIDA TIRANT, S\/N, 03800, Alcoy\/Alcoi, Alicante","products":{"Nuevo Gasoleo A":{"price":1.3,"rank":2}},"rank":2},{"id":3586,"name":"PETRONOR","lat":38.691889,"lng":-0.489611,"address":"CL OLIVER, S.N., 03800, Alcoy\/Alcoi, Alicante","products":{"Nuevo Gasoleo A":{"price":1.3,"rank":2}},"rank":2},{"id":14200,"name":"GASEXPRESS","lat":38.711556,"lng":-0.46625,"address":"CALLE VALENCIA ESQ C\/SANT JOAN BOSCO, 1, 03800, Alcoy\/Alcoi, Alicante","products":{"Gasolina 95 Protección":{"price":1.2,"rank":3}},"rank":3},{"id":3623,"name":"ARBIT","lat":38.581361,"lng":-0.105389,"address":"CL AVDA. DEL PAIS VALENCIANO S.N., 03580, Alfàs del Pi (l'), Alicante","products":{"Nuevo Gasoleo A":{"price":1.28,"rank":2}},"rank":2},{"id":3733,"name":"GALP","lat":38.567722,"lng":-0.082972,"address":"AP-1535 km 2,000, 03581, Alfàs del Pi (l'), Alicante","products":{"Nuevo Gasoleo A":{"price":1.28,"rank":2}},"rank":2},{"id":11929,"name":"BP","lat":38.058389,"lng":-0.746611,"address":"POLIGONO SECTOR VIII - EL ZOCO, S\/N, 03169, Algorfa, Alicante","products":{"Nuevo Gasoleo A":{"price":1.31,"rank":2}},"rank":2},{"id":3416,"name":"CEPSA","lat":38.339222,"lng":-0.998222,"address":"CALLE SAN JUAN, 32, 03668, Algueña, Alicante","products":{"Nuevo Gasoleo A":{"price":1.26,"rank":2}},"rank":2},{"id":3724,"name":"LOW GAS PLUS","lat":38.463056,"lng":-0.471417,"address":"CARRETERA CV-800 KM. 6,1, 03001, Alicante\/Alacant, Alicante","products":{"Gasolina  98":{"price":1.39,"rank":3}},"rank":3},{"id":3723,"name":"LOW GAS PLUS","lat":38.462833,"lng":-0.470139,"address":"CARRETERA CV-800 KM. 6,1, 03001, Alicante\/Alacant, Alicante","products":{"Gasolina  98":{"price":1.39,"rank":3}},"rank":3},{"id":3643,"name":"REPSOL","lat":38.351361,"lng":-0.487472,"address":"CL PLAZA SAN ANTONIO, 9, 03004, Alicante\/Alacant, Alicante","products":{"Gasolina 95 Protección":{"price":1.33,"rank":3}},"rank":3},{"id":3673,"name":"REPSOL","lat":38.357,"lng":-0.47675,"address":"AVENIDA PADRE ESPLÁ, 36, 03013, Alicante\/Alacant, Alicante","products":{"Gasolina 95 Protección":{"price":1.33,"rank":3}},"rank":3},{"id":10941,"name":"BP OIL ESPAÑA","lat":38.359667,"lng":-0.467361,"address":"AVENIDA DENIA, 75, 03013, Alicante\/Alacant, Alicante","products":{"Nuevo Gasoleo A":{"price":1.3,"rank":2}},"rank":2},{"id":10940,"name":"BP OIL ESPAÑA","lat":38.359278,"lng":-0.466972,"address":"AVENIDA DENIA, 80, 03013, Alicante\/Alacant, Alicante","products":{"Nuevo Gasoleo A":{"price":1.3,"rank":2}},"rank":2},{"id":3550,"name":"REPSOL","lat":38.370222,"lng":-0.4975,"address":"AVENIDA NOVELDA, 179, 03009, Alicante\/Alacant, Alicante","products":{"Nuevo Gasoleo A":{"price":1.27,"rank":2}},"rank":2},{"id":12649,"name":"GM OIL","lat":38.377722,"lng":-0.504722,"address":"CALLE JATIVA, S\/N, 03009, Alicante\/Alacant, Alicante","products":{"Gasolina 95 Protección":{"price":1.18,"rank":3}},"rank":3},{"id":8379,"name":"SHELL","lat":38.374139,"lng":-0.506833,"address":"AVENIDA UNIVERSIDAD, S\/N, 03009, Alicante\/Alacant, Alicante","products":{"Nuevo Gasoleo A":{"price":1.25,"rank":2}},"rank":2},{"id":12283,"name":"REPSOL","lat":38.375333,"lng":-0.499444,"address":"CALLE FORTUNY, S\/N, 03009, Alicante\/Alacant, Alicante","products":{"Nuevo Gasoleo A":{"price":1.27,"rank":2}},"rank":2},{"id":3690,"name":"REPSOL","lat":38.376194,"lng":-0.508861,"address":"AVENIDA DE LA UNIVERSIDAD, SN, 03009, Alicante\/Alacant, Alicante","products":{"Nuevo Gasoleo A":{"price":1.27,"rank":2}},"rank":2},{"id":3431,"name":"CEPSA","lat":38.355528,"lng":-0.487889,"address":"AVENIDA ALCOY, 2, 03010, Alicante\/Alacant, Alicante","products":{"Gasolina 95 Protección":{"price":1.33,"rank":3}},"rank":3},{"id":10245,"name":"REPSOL","lat":38.364222,"lng":-0.494306,"address":"AVENIDA NOVELDA, 70, 03010, Alicante\/Alacant, Alicante","products":{"Nuevo Gasoleo A":{"price":1.27,"rank":2}},"rank":2},{"id":3593,"name":"REPSOL","lat":38.358556,"lng":-0.483944,"address":"AVENIDA JIJONA, 88, 03012, Alicante\/Alacant, Alicante","products":{"Nuevo Gasoleo A":{"price":1.3,"rank":2}},"rank":2},{"id":3421,"name":"CEPSA","lat":38.375111,"lng":-0.486944,"address":"AVENIDA GASTON CASTELLO, 58, 03014, Alicante\/Alacant, Alicante","products":{"Nuevo Gasoleo A":{"price":1.29,"rank":2}},"rank":2},{"id":13283,"name":"ALCAMPO","lat":38.370694,"lng":-0.466806,"address":"AVENIDA ANTONIO RAMOS CARRATALA, 56, 03015, Alicante\/Alacant, Alicante","products":{"Nuevo Gasoleo A":{"price":1.12,"rank":1}},"rank":1},{"id":3417,"name":"CEPSA","lat":38.363639,"lng":-0.434556,"address":"AVDA. DE LA CONDOMINA, 47 (C-190 km 3,7), 03540, Alicante\/Alacant, Alicante","products":{"Nuevo Gasoleo A":{"price":1.25,"rank":2}},"rank":2},{"id":3580,"name":"LA GOTETA","lat":38.355389,"lng":-0.472306,"address":"AVENIDA DENIA, 60, 03016, Alicante\/Alacant, Alicante","products":{"Nuevo Gasoleo A":{"price":1.29,"rank":2}},"rank":2},{"id":3603,"name":"VISTAHERMOSA","lat":38.375472,"lng":-0.453806,"address":"AVENIDA DENIA, 150, 03016, Alicante\/Alacant, Alicante","products":{"Nuevo Gasoleo A":{"price":1.3,"rank":2}},"rank":2},{"id":8300,"name":"GALP","lat":38.37,"lng":-0.446667,"address":"VIAL CONEXION N-332 Y A-7, S\/N, 03016, Alicante\/Alacant, Alicante","products":{"Nuevo Gasoleo A":{"price":1.27,"rank":2}},"rank":2},{"id":3695,"name":"CAMPSA","lat":38.378083,"lng":-0.488194,"address":"CL PINTOR GASTON CASTELLO, 34, 03112, Alicante\/Alacant, Alicante","products":{"Nuevo Gasoleo A":{"price":1.27,"rank":2}},"rank":2},{"id":13568,"name":"AVANZA","lat":38.383583,"lng":-0.48975,"address":"CALLE MUSICO JOSE TORREGROSA, 33, 03112, Alicante\/Alacant, Alicante","products":{"Gasolina 95 Protección":{"price":1.2,"rank":3}},"rank":3},{"id":3470,"name":"REPSOL","lat":38.401,"lng":-0.47775,"address":"CARRETERA A-214 KM. 5, 03112, Alicante\/Alacant, Alicante","products":{"Nuevo Gasoleo A":{"price":1.28,"rank":2}},"rank":2},{"id":10710,"name":"E.S. REJAS VERDES","lat":38.370083,"lng":-0.486611,"address":"AVENIDA PINTOR GASTON CASTELLO, 1, 03011, Alicante\/Alacant, Alicante","products":{"Nuevo Gasoleo A":{"price":1.29,"rank":2}},"rank":2},{"id":13572,"name":"GASEXPRESS","lat":38.375972,"lng":-0.498972,"address":"AVENIDA NOVELDA, 204, 03011, Alicante\/Alacant, Alicante","products":{"Gasolina 95 Protección":{"price":1.2,"rank":3}},"rank":3},{"id":13585,"name":"PETROPRIX","lat":38.376944,"lng":-0.499722,"address":"AVENIDA NOVELDA, 216, 03011, Alicante\/Alacant, Alicante","products":{"Gasolina 95 Protección":{"price":1.2,"rank":3}},"rank":3},{"id":13759,"name":"FEROYL","lat":38.385639,"lng":-0.449972,"address":"AVENIDA DE DENIA, 183, 03559, Alicante\/Alacant, Alicante","products":{"Nuevo Gasoleo A":{"price":1.26,"rank":2}},"rank":2},{"id":3680,"name":"REPSOL","lat":38.38625,"lng":-0.447417,"address":"CARRETERA 112,6 KM. N-332, 03559, Alicante\/Alacant, Alicante","products":{"Nuevo Gasoleo A":{"price":1.3,"rank":2}},"rank":2},{"id":3684,"name":"PETRONOR","lat":38.344944,"lng":-0.523167,"address":"CARRETERA N-330 KM. 409, 03006, Alicante\/Alacant, Alicante","products":{"Nuevo Gasoleo A":{"price":1.28,"rank":2}},"rank":2},{"id":9191,"name":"PETROALACANT","lat":38.34825,"lng":-0.555389,"address":"POLIGONO PLA VALLONGA CALLE 8, PARCELA 15, 03006, Alicante\/Alacant, Alicante","products":{"Nuevo Gasoleo A":{"price":1.21,"rank":2}},"rank":2},{"id":3406,"name":"CEPSA","lat":38.343611,"lng":-0.545111,"address":"CARRETERA N-330A KM. 407,7, 03006, Alicante\/Alacant, Alicante","products":{"Nuevo Gasoleo A":{"price":1.29,"rank":2}},"rank":2},{"id":11716,"name":"CONFORT AUTO","lat":38.344,"lng":-0.524194,"address":"AVENIDA NEPTUNO, 4, 03006, Alicante\/Alacant, Alicante","products":{"Nuevo Gasoleo A":{"price":1.25,"rank":2}},"rank":2},{"id":13593,"name":"BALLENOIL","lat":38.345056,"lng":-0.522278,"address":"CALLE OCAÑA, 16, 03006, Alicante\/Alacant, Alicante","products":{"Gasolina 95 Protección":{"price":1.24,"rank":3}},"rank":3},{"id":9119,"name":"SHELL","lat":38.345583,"lng":-0.517889,"address":"AVDA. ORIHUELA, S\/N - ESQUINA VIA PARQUE, 03006, Alicante\/Alacant, Alicante","products":{"Nuevo Gasoleo A":{"price":1.28,"rank":2}},"rank":2},{"id":11474,"name":"REPSOL","lat":38.344611,"lng":-0.522944,"address":"CARRETERA MADRID ESQ.RIO JUCAR KM. 19, 03006, Alicante\/Alacant, Alicante","products":{},"rank":3},{"id":3729,"name":"GALP","lat":38.330583,"lng":-0.5135,"address":"AVENIDA RAMÓN GÓMEZ SEMPERE, 4, 03008, Alicante\/Alacant, Alicante","products":{"Nuevo Gasoleo A":{"price":1.28,"rank":2}},"rank":2},{"id":3731,"name":"TAMOIL","lat":38.335861,"lng":-0.512472,"address":"POL. IND. BABEL C\/ ARTES GR?FICAS, 89, 03008, Alicante\/Alacant, Alicante","products":{"Gasolina  98":{"price":1.38,"rank":3}},"rank":3},{"id":13584,"name":"PETROPRIX","lat":38.303611,"lng":-0.521389,"address":"AVENIDA ELCHE, 150, 03008, Alicante\/Alacant, Alicante","products":{"Gasolina 95 Protección":{"price":1.2,"rank":3}},"rank":3},{"id":3412,"name":"CEPSA","lat":38.337778,"lng":-0.500389,"address":"AVENIDA ELCHE (N-332 P.K. 102), 16, 03008, Alicante\/Alacant, Alicante","products":{"Nuevo Gasoleo A":{"price":1.29,"rank":2}},"rank":2},{"id":9302,"name":"CEPSA","lat":38.338611,"lng":-0.516,"address":"AVENIDA ALCALDE LORENZO CARBONELL, 71, 03007, Alicante\/Alacant, Alicante","products":{"Nuevo Gasoleo A":{"price":1.29,"rank":2}},"rank":2},{"id":12485,"name":"PETRO ALACANT","lat":38.344917,"lng":-0.518333,"address":"CARRETERA OCAÑA KM. 7, 03007, Alicante\/Alacant, Alicante","products":{"Nuevo Gasoleo A":{"price":1.21,"rank":2}},"rank":2},{"id":3727,"name":"GALP","lat":38.34525,"lng":-0.520556,"address":"N-330-P.K. 409,1 P.I. El Espartal, 03007, Alicante\/Alacant, Alicante","products":{"Nuevo Gasoleo A":{"price":1.26,"rank":2}},"rank":2},{"id":12961,"name":"CARREFOUR","lat":38.340028,"lng":-0.51775,"address":"CALLE ALCALDE LORENZO CARBONELL, S\/N ESQUINA VIA PARQUE, S\/N, 03007, Alicante\/Alacant, Alicante","products":{"Nuevo Gasoleo A":{"price":1.23,"rank":2}},"rank":2},{"id":3749,"name":"GALP","lat":38.337778,"lng":-0.523139,"address":"Rosa de los Vientos (esq. Camino Viejo de Elche), 03007, Alicante\/Alacant, Alicante","products":{"Nuevo Gasoleo A":{"price":1.27,"rank":2}},"rank":2},{"id":3446,"name":"CEPSA","lat":38.344139,"lng":-0.538472,"address":"POLIGONO ZONA INDUSTRIAL A, POLIGONO B, S\/N, 03114, Alicante\/Alacant, Alicante","products":{"Nuevo Gasoleo A":{"price":1.29,"rank":2}},"rank":2},{"id":3660,"name":"PETRONOR","lat":38.342361,"lng":-0.607083,"address":"CARRETERA N-330 A KM. 401, 03113, Alicante\/Alacant, Alicante","products":{"Nuevo Gasoleo A":{"price":1.28,"rank":2}},"rank":2},{"id":1893,"name":"REPSOL","lat":38.411,"lng":-0.565972,"address":"CARRETERA CV 820 KM. 1,4, 03699, Alicante\/Alacant, Alicante","products":{"Nuevo Gasoleo A":{"price":1.22,"rank":2}},"rank":2},{"id":9455,"name":"REPSOL","lat":38.4115,"lng":-0.565444,"address":"CARRETERA CV 820 KM. 1,3, 03699, Alicante\/Alacant, Alicante","products":{"Nuevo Gasoleo A":{"price":1.28,"rank":2}},"rank":2},{"id":3453,"name":"ATALAYAS","lat":38.338278,"lng":-0.566472,"address":"CALLE DEL RUBLO PARC R75, 75, 03114, Alicante\/Alacant, Alicante","products":{"Nuevo Gasoleo A":{"price":1.27,"rank":2}},"rank":2},{"id":12578,"name":"CEPSA","lat":38.339667,"lng":-0.564806,"address":"AVENIDA ANTIGUA PESETA, 75, 03114, Alicante\/Alacant, Alicante","products":{},"rank":3},{"id":3410,"name":"CEPSA","lat":38.123556,"lng":-0.781806,"address":"CARRETERA C-3321 KM. 38,1, 03160, Almoradí, Alicante","products":{"Nuevo Gasoleo A":{"price":1.29,"rank":2}},"rank":2},{"id":9613,"name":"LAS MAROMAS","lat":38.099361,"lng":-0.796528,"address":"AVENIDA COMUNIDAD EUROPEA, 1, 03160, Almoradí, Alicante","products":{"Nuevo Gasoleo A":{"price":1.25,"rank":2}},"rank":2},{"id":9717,"name":"REPSOL","lat":38.104778,"lng":-0.797083,"address":"AVENIDA ORIHUELA, 17, 03160, Almoradí, Alicante","products":{"Nuevo Gasoleo A":{"price":1.3,"rank":2}},"rank":2},{"id":3721,"name":"GALP","lat":38.115139,"lng":-0.78875,"address":"Principe De EspañA, 10, 03160, Almoradí, Alicante","products":{"Nuevo Gasoleo A":{"price":1.26,"rank":2}},"rank":2},{"id":3514,"name":"CAMPSA EXPRESS","lat":38.103833,"lng":-0.781472,"address":"CARRETERA DE ROJALES KM. 1, 03160, Almoradí, Alicante","products":{"Nuevo Gasoleo A":{"price":1.26,"rank":2}},"rank":2},{"id":3484,"name":"REPSOL","lat":38.605917,"lng":-0.078472,"address":"CARRETERA LA NUCIA KM. 2,8, 03590, Altea, Alicante","products":{"Nuevo Gasoleo A":{"price":1.28,"rank":2}},"rank":2},{"id":3517,"name":"REPSOL","lat":38.586556,"lng":-0.064694,"address":"CARRETERA N-332 KM. 155,5, 03590, Altea, Alicante","products":{"Nuevo Gasoleo A":{"price":1.28,"rank":2}},"rank":2},{"id":3712,"name":"GALP","lat":38.593222,"lng":-0.054917,"address":"Carrer De La Mar, 157, 03590, Altea, Alicante","products":{"Nuevo Gasoleo A":{"price":1.24,"rank":2}},"rank":2},{"id":3402,"name":"REPSOL","lat":38.604722,"lng":-0.048611,"address":"CALLE GARGANES, 42, 03590, Altea, Alicante","products":{"Nuevo Gasoleo A":{"price":1.28,"rank":2}},"rank":2},{"id":3444,"name":"CEPSA ELF","lat":38.62675,"lng":-0.0385,"address":"CARRETERA CV-755 KM. 9,2, 03599, Altea, Alicante","products":{"Nuevo Gasoleo A":{"price":1.28,"rank":2}},"rank":2},{"id":3649,"name":"MARTI SERRA, S.A.","lat":38.3555,"lng":-0.772833,"address":"CR N-325, 5,8, 03680, Aspe, Alicante","products":{"Nuevo Gasoleo A":{"price":1.22,"rank":2}},"rank":2},{"id":11718,"name":"CONFORT AUTO","lat":38.358167,"lng":-0.770917,"address":"CARRETERA NOVELDA KM. 22, 03680, Aspe, Alicante","products":{"Nuevo Gasoleo A":{"price":1.26,"rank":2}},"rank":2},{"id":3542,"name":"REPSOL","lat":38.336722,"lng":-0.774111,"address":"AVENIDA 3 DE AGOSTO, 23, 03680, Aspe, Alicante","products":{"Nuevo Gasoleo A":{"price":1.28,"rank":2}},"rank":2},{"id":11522,"name":"LEVANTINA","lat":38.356139,"lng":-0.770417,"address":"POLIGONO C\/ IBI, S\/N, 03680, Aspe, Alicante","products":{"Nuevo Gasoleo A":{"price":1.27,"rank":2}},"rank":2},{"id":1943,"name":"CEPSA ESPAÑA S.A.","lat":38.354028,"lng":-0.772639,"address":"AVD.DE NAVARRA 151, 03680, Aspe, Alicante","products":{"Nuevo Gasoleo A":{"price":1.28,"rank":2}},"rank":2},{"id":10582,"name":"BP","lat":38.325917,"lng":-0.767139,"address":"POLIGONO TRES HERMANAS   ALCOHOLERA, 11, 03680, Aspe, Alicante","products":{"Nuevo Gasoleo A":{"price":1.3,"rank":2}},"rank":2},{"id":12853,"name":"GALP ","lat":38.356306,"lng":-0.772361,"address":"CARRETERA NOVELDA KM. 8, 03680, Aspe, Alicante","products":{"Gasolina 95 Protección":{"price":1.26,"rank":3}},"rank":3},{"id":3405,"name":"REPSOL","lat":38.715917,"lng":-0.664056,"address":"CALLE PADRE JESUALDO FERRERO, 1, 03450, Banyeres de Mariola, Alicante","products":{"Nuevo Gasoleo A":{"price":1.3,"rank":2}},"rank":2},{"id":3663,"name":"BAÑERES","lat":38.720111,"lng":-0.671194,"address":"CALLE LES MOLINES, 35, , 03450, Banyeres de Mariola, Alicante","products":{"Nuevo Gasoleo A":{"price":1.2,"rank":2}},"rank":2},{"id":1907,"name":"COOPERATIVA DIVINA AURORA","lat":38.701889,"lng":-0.76775,"address":"CALLE DR. SILVESTRE, , 03460, Beneixama, Alicante","products":{"Gasolina 95 Protección":{"price":1.24,"rank":3}},"rank":3},{"id":10302,"name":"ESTACIONES DE SERVICIO DIEGO S.L.","lat":38.698,"lng":-0.771194,"address":"CARRETERA VILLENA-ALCUDIA KM. 10,608, 03460, Beneixama, Alicante","products":{"Gasolina  98":{"price":1.25,"rank":3}},"rank":3},{"id":3574,"name":"REPSOL","lat":38.076944,"lng":-0.843056,"address":"CARRETERA JACARILLA KM. S\/N, 03390, Benejúzar, Alicante","products":{"Nuevo Gasoleo A":{"price":1.3,"rank":2}},"rank":2},{"id":3632,"name":"BP BENIDORM","lat":38.544194,"lng":-0.11925,"address":"AVENIDA COMUNIDAD VALENCIANA, 18, 03501, Benidorm, Alicante","products":{"Nuevo Gasoleo A":{"price":1.3,"rank":2}},"rank":2},{"id":3716,"name":"GALP","lat":38.533639,"lng":-0.16225,"address":"AVENIDA VILLAJOYOSA LA, 34, 03501, Benidorm, Alicante","products":{"Nuevo Gasoleo A":{"price":1.27,"rank":2}},"rank":2},{"id":3429,"name":"GALP","lat":38.557694,"lng":-0.1015,"address":"CARRETERA N-332 KM. 124,5, 03501, Benidorm, Alicante","products":{"Nuevo Gasoleo A":{"price":1.28,"rank":2}},"rank":2},{"id":3430,"name":"GALP","lat":38.558056,"lng":-0.101917,"address":"CARRETERA N-332 KM. 124,5, 03501, Benidorm, Alicante","products":{"Nuevo Gasoleo A":{"price":1.28,"rank":2}},"rank":2},{"id":11766,"name":"REPSOL","lat":38.559583,"lng":-0.134444,"address":"CARRETERA CV-70 KM. 47, 03501, Benidorm, Alicante","products":{"Nuevo Gasoleo A":{"price":1.28,"rank":2}},"rank":2},{"id":3598,"name":"EUROBENIDORM","lat":38.543139,"lng":-0.102722,"address":"AVENIDA DOCTOR SEVERO OCHOA, S\/N, 03503, Benidorm, Alicante","products":{"Nuevo Gasoleo A":{"price":1.3,"rank":2}},"rank":2},{"id":1896,"name":"LA ISLETA","lat":38.541722,"lng":-0.134139,"address":"AVENIDA JAIME I, 23, 03502, Benidorm, Alicante","products":{"Nuevo Gasoleo A":{"price":1.3,"rank":2}},"rank":2},{"id":1892,"name":"(SIN RÓTULO)","lat":38.698833,"lng":-0.386472,"address":"CARRETERA ALCOY A CALLOSA D'ENSARRIA S\/N KM. 36, 03810, Benilloba, Alicante","products":{"Gasolina 95 Protección":{"price":1.32,"rank":3}},"rank":3},{"id":13381,"name":"MASOIL","lat":38.719222,"lng":0.060556,"address":"AVINGUDA EUROPA, 34, 03720, Benissa, Alicante","products":{"Gasolina 95 Protección":{"price":1.26,"rank":3}},"rank":3},{"id":3526,"name":"REPSOL","lat":38.713389,"lng":0.046556,"address":"AVENIDA PAIS VALENCIA, 210, 03720, Benissa, Alicante","products":{"Gasolina 95 Protección":{"price":1.34,"rank":3}},"rank":3},{"id":13780,"name":"GASEXPRESS","lat":38.677722,"lng":0.105778,"address":"CARRETERA MORAIRA-CALPE KM. 3, 03720, Benissa, Alicante","products":{"Gasolina 95 Protección":{"price":1.26,"rank":3}},"rank":3},{"id":8795,"name":"BP","lat":38.718139,"lng":0.060194,"address":"AVENIDA EUROPA, 8, 03720, Benissa, Alicante","products":{"Nuevo Gasoleo A":{"price":1.31,"rank":2}},"rank":2},{"id":3393,"name":"MEROIL","lat":38.726757,"lng":0.076579,"address":"RICARDO DE LA CIERVA, 13 (POLIGONO LA PEDRERA), 03720, Benissa, Alicante","products":{"Nuevo Gasoleo A":{"price":1.29,"rank":2}},"rank":2},{"id":13579,"name":"ROSELLO","lat":38.718611,"lng":0.059389,"address":"CALLE MARGENADORS DELS, 8, 03720, Benissa, Alicante","products":{"Gasolina 95 Protección":{"price":1.23,"rank":3}},"rank":3},{"id":8349,"name":"(SIN RÓTULO)","lat":38.738972,"lng":0.152139,"address":"CARRETERA CV-740 KM. 6,800, 03726, Benitachell\/Poble Nou de Benitatxell (el), Alicante","products":{"Gasolina  98":{"price":1.41,"rank":3}},"rank":3},{"id":3458,"name":"REPSOL","lat":38.630583,"lng":-0.786556,"address":"CARRETERA ALCOY - VILLENA KM. 38,2, 03410, Biar, Alicante","products":{"Nuevo Gasoleo A":{"price":1.29,"rank":2}},"rank":2},{"id":3445,"name":"CEPSA","lat":38.059194,"lng":-0.885222,"address":"POLIGONO APATEL, 6, 03380, Bigastro, Alicante","products":{"Nuevo Gasoleo A":{"price":1.31,"rank":2}},"rank":2},{"id":13879,"name":"BIGASOIL","lat":38.059056,"lng":-0.884611,"address":"CALLE DEL PROGRESO, 24, 03380, Bigastro, Alicante","products":{"Gasolina 95 Protección":{"price":1.22,"rank":3}},"rank":3},{"id":13006,"name":"ATLANTIS EXPRESS","lat":38.477806,"lng":-0.424194,"address":"CALLE EL PI, 1, 03111, Busot, Alicante","products":{"Gasolina 95 Protección":{"price":1.29,"rank":3}},"rank":3},{"id":3575,"name":"PETRONOR","lat":38.143139,"lng":-0.927583,"address":"CARRETERA N-340 KM. 692,9, 03360, Callosa de Segura, Alicante","products":{"Nuevo Gasoleo A":{"price":1.32,"rank":2}},"rank":2},{"id":12401,"name":"BP OIL ESPAÑA, S.A.U.","lat":38.12775,"lng":-0.861861,"address":"CARRETERA CATRAL KM. 0,300, 03360, Callosa de Segura, Alicante","products":{"Nuevo Gasoleo A":{"price":1.3,"rank":2}},"rank":2},{"id":12442,"name":"REPSOL","lat":38.125694,"lng":-0.867333,"address":"CARRETERA CV913 KM. 1, 03360, Callosa de Segura, Alicante","products":{"Nuevo Gasoleo A":{"price":1.29,"rank":2}},"rank":2},{"id":3669,"name":"REPSOL","lat":38.6495,"lng":-0.121194,"address":"CALLE SAN ISIDRO, 10, 03510, Callosa d'En Sarrià, Alicante","products":{"Nuevo Gasoleo A":{"price":1.33,"rank":2}},"rank":2},{"id":13958,"name":"AUTOFUEL LOW COST","lat":38.64575,"lng":0.051139,"address":"AVINGUDA VALL DE LAGUART, 5, 03710, Calpe\/Calp, Alicante","products":{"Gasolina 95 Protección":{"price":1.25,"rank":3}},"rank":3},{"id":13667,"name":"GASEXPRESS","lat":38.646306,"lng":0.04175,"address":"AVENIDA DIPUTACION, 35, 03710, Calpe\/Calp, Alicante","products":{"Gasolina 95 Protección":{"price":1.25,"rank":3}},"rank":3},{"id":1960,"name":"SARAS ENERGIA ","lat":38.646306,"lng":0.040556,"address":"AV.DIPUTACIÓN S\/N - C.C. CAPRABO, 03710, Calpe\/Calp, Alicante","products":{"Nuevo Gasoleo A":{"price":1.21,"rank":2}},"rank":2},{"id":3512,"name":"REPSOL","lat":38.645444,"lng":0.050278,"address":"CALLE L ESPORT, 2, 03710, Calpe\/Calp, Alicante","products":{"Nuevo Gasoleo A":{"price":1.29,"rank":2}},"rank":2},{"id":3639,"name":"CALPE AUTOMOCION","lat":38.653028,"lng":0.037306,"address":"PARTIDA ESTACION II, 6, 03710, Calpe\/Calp, Alicante","products":{"Nuevo Gasoleo A":{"price":1.31,"rank":2}},"rank":2},{"id":9245,"name":"CALPE AUTOMOCION II","lat":38.652972,"lng":0.037806,"address":"PARTIDA ESTACION II, 6, 03710, Calpe\/Calp, Alicante","products":{"Nuevo Gasoleo A":{"price":1.2,"rank":2}},"rank":2},{"id":9651,"name":"SHELL","lat":38.430639,"lng":-0.399389,"address":"C\/ SAN RAMON, 109, 03560, Campello (el), Alicante","products":{"Nuevo Gasoleo A":{"price":1.3,"rank":2}},"rank":2},{"id":3665,"name":"CAMPELLO-LA GOTETA 2","lat":38.424083,"lng":-0.401389,"address":"CALLE INFANTA, 31, 03560, Campello (el), Alicante","products":{"Nuevo Gasoleo A":{"price":1.3,"rank":2}},"rank":2},{"id":3567,"name":"PETRONOR","lat":38.450167,"lng":-0.373611,"address":"CARRETERA N-332 KM. 122, 03560, Campello (el), Alicante","products":{"Nuevo Gasoleo A":{"price":1.3,"rank":2}},"rank":2},{"id":3568,"name":"REPSOL","lat":38.450278,"lng":-0.374361,"address":"CARRETERA N-332 KM. 122,5, 03560, Campello (el), Alicante","products":{"Nuevo Gasoleo A":{"price":1.3,"rank":2}},"rank":2},{"id":3570,"name":"REPSOL-RIO SECO","lat":38.424639,"lng":-0.406444,"address":"CALLE SAN RAMON 8, , 03560, Campello (el), Alicante","products":{"Nuevo Gasoleo A":{"price":1.3,"rank":2}},"rank":2},{"id":1941,"name":"GALP","lat":38.418806,"lng":-0.393167,"address":"CALLE SAN BARTOLOME, 33, 03560, Campello (el), Alicante","products":{"Nuevo Gasoleo A":{"price":1.25,"rank":2}},"rank":2},{"id":3675,"name":"REPSOL","lat":38.600944,"lng":-0.669611,"address":"AVENIDA DE IBI, 46, 03420, Castalla, Alicante","products":{"Nuevo Gasoleo A":{"price":1.31,"rank":2}},"rank":2},{"id":11545,"name":"REPSOL","lat":38.57825,"lng":-0.654917,"address":"CARRETERA CASTALLA ALICANTE, CV 815 KM. 5,7, 03420, Castalla, Alicante","products":{"Nuevo Gasoleo A":{"price":1.29,"rank":2}},"rank":2},{"id":14136,"name":"MASOIL","lat":38.596361,"lng":-0.663889,"address":"CALLE SAN VICENTE DEL RASPEIG, 4, 03420, Castalla, Alicante","products":{"Gasolina 95 Protección":{"price":1.26,"rank":3}},"rank":3},{"id":10306,"name":"GASEXPRESS","lat":38.148111,"lng":-0.828444,"address":"CARRETERA CATRAL- CALLOSA DEL SEGURA KM. 5,3, 03158, Catral, Alicante","products":{"Gasolina 95 Protección":{"price":1.2,"rank":3}},"rank":3},{"id":1914,"name":"BRIOGAS","lat":38.167583,"lng":-0.803306,"address":"PURISIMA, 80, 03158, Catral, Alicante","products":{"Nuevo Gasoleo A":{"price":1.27,"rank":2}},"rank":2},{"id":3647,"name":"REPSOL","lat":38.738722,"lng":-0.439694,"address":"CL AVENIDA PAIS VALENCIA, 117, 03820, Cocentaina, Alicante","products":{"Nuevo Gasoleo A":{"price":1.3,"rank":2}},"rank":2},{"id":3476,"name":"REPSOL","lat":38.717889,"lng":-0.45775,"address":"AVENIDA ALICANTE, 49, 03820, Cocentaina, Alicante","products":{"Nuevo Gasoleo A":{"price":1.3,"rank":2}},"rank":2},{"id":11117,"name":"CARREFOUR","lat":38.730639,"lng":-0.443278,"address":"AVENIDA AVDA. L'ALTET Nº 2, 2, 03820, Cocentaina, Alicante","products":{"Nuevo Gasoleo A":{"price":1.21,"rank":2}},"rank":2},{"id":3714,"name":"GALP","lat":38.715167,"lng":-0.463167,"address":"AVENIDA AVENIDA DE ALICANTE, 104, 03820, Cocentaina, Alicante","products":{"Nuevo Gasoleo A":{"price":1.12,"rank":1}},"rank":1},{"id":3715,"name":"GALP","lat":38.715472,"lng":-0.463639,"address":"AVENIDA DE ALICANTE, 87, 03820, Cocentaina, Alicante","products":{"Nuevo Gasoleo A":{"price":1.23,"rank":2}},"rank":2},{"id":13901,"name":"SHELL","lat":38.733333,"lng":-0.441806,"address":"AVENIDA ALTET L', 3, 03820, Cocentaina, Alicante","products":{"Gasolina 95 Protección":{"price":1.24,"rank":3}},"rank":3},{"id":10090,"name":"PEPE RAMON","lat":38.141528,"lng":-0.899639,"address":"PARAJE DE SAN ISIDRO, S\/Nº, 03350, Cox, Alicante","products":{"Gasoleo A":{"price":1.17,"rank":3}},"rank":3},{"id":3711,"name":"BP OIL ESPAÑA, S.A.U.","lat":38.143889,"lng":-0.898861,"address":"PASEO PRINCIPE DE ASTURIAS, S\/N, 03350, Cox, Alicante","products":{"Nuevo Gasoleo A":{"price":1.3,"rank":2}},"rank":2},{"id":3577,"name":"REPSOL","lat":38.147139,"lng":-0.889278,"address":"AVENIDA DEL CARMEN, 94, 03350, Cox, Alicante","products":{"Nuevo Gasoleo A":{"price":1.28,"rank":2}},"rank":2},{"id":3668,"name":"REPSOL","lat":38.227222,"lng":-0.822528,"address":"CARRETERA NACIONAL 340 KM. 707,1, 03330, Crevillent, Alicante","products":{"Nuevo Gasoleo A":{"price":1.29,"rank":2}},"rank":2},{"id":3478,"name":"REPSOL","lat":38.233111,"lng":-0.791083,"address":"CR CV-875 ,P.K. 10,5, 03330, Crevillent, Alicante","products":{"Nuevo Gasoleo A":{"price":1.32,"rank":2}},"rank":2},{"id":10728,"name":"CEPSA","lat":38.244333,"lng":-0.797861,"address":"POLIGONO I PARCELA 10, S\/N, 03330, Crevillent, Alicante","products":{"Nuevo Gasoleo A":{"price":1.29,"rank":2}},"rank":2},{"id":3686,"name":"H.C.","lat":38.231556,"lng":-0.81975,"address":"CR N-340, 707,0, 03330, Crevillent, Alicante","products":{"Nuevo Gasoleo A":{"price":1.31,"rank":2}},"rank":2},{"id":8346,"name":"MOSCARDÓ","lat":38.248694,"lng":-0.797861,"address":"P. DE ELCHE, Nº 29-31, 03330, Crevillent, Alicante","products":{"Nuevo Gasoleo A":{"price":1.27,"rank":2}},"rank":2},{"id":8347,"name":"MOSCARDÓ","lat":38.249167,"lng":-0.798056,"address":"P. DE ELCHE, Nº 29-31, 03330, Crevillent, Alicante","products":{"Nuevo Gasoleo A":{"price":1.27,"rank":2}},"rank":2},{"id":3700,"name":"REPSOL","lat":38.196472,"lng":-0.812333,"address":"AUTOVIA A-37 KM. 728,2, 03330, Crevillent, Alicante","products":{"Nuevo Gasoleo A":{"price":1.29,"rank":2}},"rank":2},{"id":3701,"name":"REPSOL","lat":38.193028,"lng":-0.812639,"address":"AUTOVIA A-37 KM. 728, 03330, Crevillent, Alicante","products":{"Nuevo Gasoleo A":{"price":1.29,"rank":2}},"rank":2},{"id":8348,"name":"MOSCARDÓ","lat":38.848333,"lng":0.099722,"address":"CTRA. LAS MARINAS km 0,85, 03700, Dénia, Alicante","products":{"Nuevo Gasoleo A":{"price":1.28,"rank":2}},"rank":2},{"id":13036,"name":"BP","lat":38.832667,"lng":0.102111,"address":"AVENIDA MONTGO, 34, 03700, Dénia, Alicante","products":{"Nuevo Gasoleo A":{"price":1.3,"rank":2}},"rank":2},{"id":1957,"name":"SARAS ENERGIA ","lat":38.836917,"lng":0.095056,"address":"CRTA. DENIA - ONDARA, KM 1 - C.C. CAPRABO, 03700, Dénia, Alicante","products":{"Nuevo Gasoleo A":{"price":1.22,"rank":2}},"rank":2},{"id":3725,"name":"GALP","lat":38.839,"lng":0.094417,"address":"CARRETERA DENIA A ONDARA C-3311 KM. 0,5, 03700, Dénia, Alicante","products":{"Nuevo Gasoleo A":{"price":1.19,"rank":2}},"rank":2},{"id":12469,"name":"REPSOL COMERCIAL","lat":38.835694,"lng":0.09375,"address":"PARTIDA MADRIGUERES SUD, 61, 03700, Dénia, Alicante","products":{"Gasolina 95 Protección":{"price":1.33,"rank":3}},"rank":3},{"id":13231,"name":"TECKMAR","lat":38.837306,"lng":0.084556,"address":"PARTIDA MADRIGUERES SUD, 25, 03700, Dénia, Alicante","products":{"Gasolina 95 Protección":{"price":1.27,"rank":3}},"rank":3},{"id":13558,"name":"SHELL","lat":38.834083,"lng":0.113222,"address":"CAMINO SANTA LLÚCIA, 1, 03700, Dénia, Alicante","products":{"Gasolina 95 Protección":{"price":1.25,"rank":3}},"rank":3},{"id":3541,"name":"REPSOL","lat":38.839583,"lng":0.098194,"address":"CALLE AVENIDA VALENCIA, 44, 03700, Dénia, Alicante","products":{"Nuevo Gasoleo A":{"price":1.28,"rank":2}},"rank":2},{"id":1895,"name":"MAYAYO","lat":38.131278,"lng":-0.775194,"address":"CARRETERA CV905 KM. 0,800, 03150, Dolores, Alicante","products":{"Nuevo Gasoleo A":{"price":1.21,"rank":2}},"rank":2},{"id":3438,"name":"CEPSA","lat":38.140889,"lng":-0.748556,"address":"CARRETERA AP-3061 KM. 15,5, 03150, Dolores, Alicante","products":{"Nuevo Gasoleo A":{"price":1.29,"rank":2}},"rank":2},{"id":3518,"name":"REPSOL","lat":38.139722,"lng":-0.774889,"address":"CALLE MAESTRO SERRANO, 1, 03150, Dolores, Alicante","products":{"Nuevo Gasoleo A":{"price":1.3,"rank":2}},"rank":2},{"id":1880,"name":"CEPSA","lat":38.2725,"lng":-0.690833,"address":"AVENIDA ALCALDE VICENTE QUILES, 4, 03202, Elche\/Elx, Alicante","products":{"Nuevo Gasoleo A":{"price":1.29,"rank":2}},"rank":2},{"id":3621,"name":"REPSOL","lat":38.269472,"lng":-0.682194,"address":"CL AVENIDA DE ALICANTE, 72, 03202, Elche\/Elx, Alicante","products":{"Nuevo Gasoleo A":{"price":1.3,"rank":2}},"rank":2},{"id":8306,"name":"SHELL","lat":38.298056,"lng":-0.614472,"address":"CALLE MIGUEL SERVET, 4, 03203, Elche\/Elx, Alicante","products":{"Nuevo Gasoleo A":{"price":1.27,"rank":2}},"rank":2},{"id":11715,"name":"CONFORT AUTO","lat":38.296528,"lng":-0.614861,"address":"CALLE SANTIAGO RAMON Y CAJAL, 35, 03203, Elche\/Elx, Alicante","products":{"Nuevo Gasoleo A":{"price":1.26,"rank":2}},"rank":2},{"id":10312,"name":"NUEVA MULTI LC","lat":38.297111,"lng":-0.615389,"address":"CALLE MIGUEL SERVET, 9, 03203, Elche\/Elx, Alicante","products":{"Gasolina 95 Protección":{"price":1.27,"rank":3}},"rank":3},{"id":3562,"name":"BETA ","lat":38.269944,"lng":-0.67075,"address":"CALLE MALLORCA, 12, 03203, Elche\/Elx, Alicante","products":{"Gasolina  98":{"price":1.48,"rank":3}},"rank":3},{"id":1882,"name":"ABIERTO (SERVICIO ATENDIDO)","lat":38.29325,"lng":-0.675417,"address":"PARTIDA ALTABIX POLIGONO 3   (CAMINO DE CASTILLA), 37, 03291, Elche\/Elx, Alicante","products":{"Nuevo Gasoleo A":{"price":1.21,"rank":2}},"rank":2},{"id":3615,"name":"LA GALIA (HNOS AZORIN)","lat":38.283139,"lng":-0.684083,"address":"PARTIDA ALTABIX.POL. 1 NO 203 (AV DEL BIMILENARIO S\/N), 03291, Elche\/Elx, Alicante","products":{"Nuevo Gasoleo A":{"price":1.31,"rank":2}},"rank":2},{"id":3726,"name":"GALP","lat":38.278972,"lng":-0.719639,"address":"CALLE ALMANSA, 62, 03291, Elche\/Elx, Alicante","products":{"Nuevo Gasoleo A":{"price":1.29,"rank":2}},"rank":2},{"id":3709,"name":"CEPSA","lat":38.258694,"lng":-0.734333,"address":"CARRETERA N-340A KM. 716,3, 03205, Elche\/Elx, Alicante","products":{"Nuevo Gasoleo A":{"price":1.24,"rank":2}},"rank":2},{"id":12276,"name":"BP","lat":38.264139,"lng":-0.72375,"address":"CALLE ECUADOR, 12, 03205, Elche\/Elx, Alicante","products":{"Nuevo Gasoleo A":{"price":1.31,"rank":2}},"rank":2},{"id":13870,"name":"GASOLINERA D'ELX (S. ATENDIDO)","lat":38.261444,"lng":-0.717444,"address":"AVINGUDA DE CREVILLENTE, 4, 03205, Elche\/Elx, Alicante","products":{"Nuevo Gasoleo A":{"price":1.14,"rank":1}},"rank":1},{"id":1947,"name":"EROSKI","lat":38.263222,"lng":-0.721917,"address":"CALLE JACARRILLA, ( C.C. L' ALJUB - EROSKI), S\/N, 03205, Elche\/Elx, Alicante","products":{"Nuevo Gasoleo A":{"price":1.15,"rank":1}},"rank":1},{"id":3748,"name":"GALP","lat":38.260389,"lng":-0.71825,"address":"Avda. de la Libertad - Salida N-340 (Crevillente), 03205, Elche\/Elx, Alicante","products":{"Nuevo Gasoleo A":{"price":1.3,"rank":2}},"rank":2},{"id":11118,"name":"CARREFOUR","lat":38.258583,"lng":-0.73025,"address":"CARRETERA ALICANTE - MURCIA KM. 53, 03205, Elche\/Elx, Alicante","products":{"Nuevo Gasoleo A":{"price":1.23,"rank":2}},"rank":2},{"id":13648,"name":"E.S. PLUSOIL","lat":38.261528,"lng":-0.718056,"address":"CALLE PANAMA, 5, 03205, Elche\/Elx, Alicante","products":{"Gasolina 95 Protección":{"price":1.21,"rank":3}},"rank":3},{"id":13600,"name":"EL CANARI","lat":38.263583,"lng":-0.7235,"address":"CALLE ECUADOR, 8, 03205, Elche\/Elx, Alicante","products":{"Gasolina 95 Protección":{"price":1.2,"rank":3}},"rank":3},{"id":3691,"name":"REPSOL","lat":38.257917,"lng":-0.678278,"address":"CAMINO CAMINO VIEJO ELCHE\/SANTA-POLA KM 0,200, 72, 03290, Elche\/Elx, Alicante","products":{"Nuevo Gasoleo A":{"price":1.3,"rank":2}},"rank":2},{"id":3685,"name":"REPSOL","lat":38.251028,"lng":-0.698306,"address":"CARRETERA CV-8500 KM. 3,6, 03290, Elche\/Elx, Alicante","products":{"Nuevo Gasoleo A":{"price":1.3,"rank":2}},"rank":2},{"id":3555,"name":"REPSOL","lat":38.278306,"lng":-0.716694,"address":"AV DE NOVELDA, 128, 03206, Elche\/Elx, Alicante","products":{"Nuevo Gasoleo A":{"price":1.3,"rank":2}},"rank":2},{"id":12301,"name":"GASOLINERA D'ELX (S. ATENDIDO)","lat":38.277806,"lng":-0.718417,"address":"CALLE PETRER, 7, 03206, Elche\/Elx, Alicante","products":{"Nuevo Gasoleo A":{"price":1.14,"rank":1}},"rank":1},{"id":3466,"name":"REPSOL","lat":38.300917,"lng":-0.740722,"address":"CARRETERA ASPE - SANTA POLA KM. 6, 03206, Elche\/Elx, Alicante","products":{"Nuevo Gasoleo A":{"price":1.3,"rank":2}},"rank":2},{"id":9392,"name":"GALP","lat":38.282778,"lng":-0.721944,"address":"AVENIDA NOVELDA, 188, 03206, Elche\/Elx, Alicante","products":{"Nuevo Gasoleo A":{"price":1.3,"rank":2}},"rank":2},{"id":14094,"name":"PLENOIL","lat":38.281083,"lng":-0.713389,"address":"CALLE ALMANSA, 19, 03206, Elche\/Elx, Alicante","products":{"Gasolina 95 Protección":{"price":1.19,"rank":3}},"rank":3},{"id":13586,"name":"PETROPRIX","lat":38.283917,"lng":-0.714278,"address":"RONDA VALL D'UIXO, 52, 03206, Elche\/Elx, Alicante","products":{"Gasolina 95 Protección":{"price":1.19,"rank":3}},"rank":3},{"id":1935,"name":"SHELL","lat":38.2525,"lng":-0.703056,"address":"C\/ SOR JOSEFA ALCORTA 71 (ESQ.CTRA.CIRCUNVALACIÓN, 03204, Elche\/Elx, Alicante","products":{"Nuevo Gasoleo A":{"price":1.28,"rank":2}},"rank":2},{"id":3742,"name":"GALP","lat":38.261861,"lng":-0.708806,"address":"AVENIDA ANTONIO MACHADO, 51, 03204, Elche\/Elx, Alicante","products":{"Nuevo Gasoleo A":{"price":1.31,"rank":2}},"rank":2},{"id":3539,"name":"REPSOL","lat":38.286861,"lng":-0.614667,"address":"CARRETERA N-340, KM727 KM. 727, 03320, Elche\/Elx, Alicante","products":{"Nuevo Gasoleo A":{"price":1.29,"rank":2}},"rank":2},{"id":8304,"name":"GALP","lat":38.307972,"lng":-0.60625,"address":"Autovía del Mediterráneo (A-7) a Valencia, 03320, Elche\/Elx, Alicante","products":{"Nuevo Gasoleo A":{"price":1.33,"rank":2}},"rank":2},{"id":8305,"name":"GALP","lat":38.309528,"lng":-0.605694,"address":"Autovía del Mediterráneo (A-7) a Murcia, 03320, Elche\/Elx, Alicante","products":{"Nuevo Gasoleo A":{"price":1.33,"rank":2}},"rank":2},{"id":9649,"name":"PETRONOR","lat":38.29175,"lng":-0.592472,"address":"AVENIDA ILLICE, 22, 03320, Elche\/Elx, Alicante","products":{"Nuevo Gasoleo A":{"price":1.3,"rank":2}},"rank":2},{"id":3552,"name":"REPSOL","lat":38.276,"lng":-0.538778,"address":"AVENIDA CARTAGENA DE, 59, 03195, Elche\/Elx, Alicante","products":{"Nuevo Gasoleo A":{"price":1.3,"rank":2}},"rank":2},{"id":3483,"name":"FTH","lat":38.278861,"lng":-0.562944,"address":"CARRETERA ELCHE-ALTET KM. 10,1, 03195, Elche\/Elx, Alicante","products":{"Nuevo Gasoleo A":{"price":1.29,"rank":2}},"rank":2},{"id":12652,"name":"PETROALACANT","lat":38.287472,"lng":-0.563472,"address":"AVENIDA AEROPUERTO DEL TORRELLANO, 125, 03195, Elche\/Elx, Alicante","products":{"Gasoleo A":{"price":1.23,"rank":3}},"rank":3},{"id":3571,"name":"REPSOL","lat":38.244861,"lng":-0.644583,"address":"CARRETERA CV-865 KM. 3,6, 03295, Elche\/Elx, Alicante","products":{"Nuevo Gasoleo A":{"price":1.3,"rank":2}},"rank":2},{"id":10503,"name":"MARINA DE LA PLANA","lat":38.143611,"lng":-0.664417,"address":"PARTIDA LA MARINA, 307, 03194, Elche\/Elx, Alicante","products":{"Nuevo Gasoleo A":{"price":1.29,"rank":2}},"rank":2},{"id":11840,"name":"CEPSA","lat":38.216611,"lng":-0.761417,"address":"CARRETERA CV-875 KM. 6,2, 03296, Elche\/Elx, Alicante","products":{"Nuevo Gasoleo A":{"price":1.29,"rank":2}},"rank":2},{"id":12581,"name":"SAN ANTON","lat":38.273778,"lng":-0.665417,"address":"CALLE ALGORFA, 2, 03207, Elche\/Elx, Alicante","products":{"Nuevo Gasoleo A":{"price":1.31,"rank":2}},"rank":2},{"id":3473,"name":"GALP","lat":38.289528,"lng":-0.550889,"address":"CARRETERA N-338 KM. 1,55, 03195, Elche\/Elx, Alicante","products":{"Nuevo Gasoleo A":{"price":1.31,"rank":2}},"rank":2},{"id":3560,"name":"PETRONOR","lat":38.196,"lng":-0.678611,"address":"CARRETERA CARRETERA ELCHE  LA MARINA KM. 6,7, 03294, Elche\/Elx, Alicante","products":{"Nuevo Gasoleo A":{"price":1.3,"rank":2}},"rank":2},{"id":3602,"name":"REPSOL","lat":38.177111,"lng":-0.702111,"address":"CARRETERA DOLORES DE KM. 8,3, 03293, Elche\/Elx, Alicante","products":{"Nuevo Gasoleo A":{"price":1.3,"rank":2}},"rank":2},{"id":3661,"name":"REPSOL","lat":38.256778,"lng":-0.74775,"address":"CARRETERA N-340 KM. 714,1, 03293, Elche\/Elx, Alicante","products":{"Nuevo Gasoleo A":{"price":1.3,"rank":2}},"rank":2},{"id":3408,"name":"CEPSA","lat":38.460056,"lng":-0.782528,"address":"AVENIDA MEDITERRANEO, S\/N, 03600, Elda, Alicante","products":{"Nuevo Gasoleo A":{"price":1.23,"rank":2}},"rank":2},{"id":3641,"name":"CEPSA","lat":38.491972,"lng":-0.795194,"address":"CALLE ROMERO,2 - AVDA. LIBERTAD, S\/N, 03600, Elda, Alicante","products":{"Nuevo Gasoleo A":{"price":1.29,"rank":2}},"rank":2},{"id":3578,"name":"REPSOL","lat":38.473944,"lng":-0.80475,"address":"CARRETERA C-3213 KM. 15,700, 03600, Elda, Alicante","products":{"Nuevo Gasoleo A":{"price":1.28,"rank":2}},"rank":2},{"id":11984,"name":"BP","lat":38.484944,"lng":-0.810639,"address":"CALLE CONDES DE ELDA, SN, 03600, Elda, Alicante","products":{"Nuevo Gasoleo A":{"price":1.26,"rank":2}},"rank":2},{"id":13445,"name":"GASEXPRESS","lat":38.464944,"lng":-0.785361,"address":"CALLE MEDICO FEDERICO MARTINEZ PEREZ, 1, 03600, Elda, Alicante","products":{"Gasolina 95 Protección":{"price":1.22,"rank":3}},"rank":3},{"id":3719,"name":"V2 GASOLINERAS","lat":38.450306,"lng":-0.812833,"address":"CARRETERA CTRA.ELDA-MONOVAR KM 13 KM. 13, 03600, Elda, Alicante","products":{"Gasolina 95 Protección":{"price":1.24,"rank":3}},"rank":3},{"id":9117,"name":"SHELL","lat":38.467333,"lng":-0.78775,"address":"AVENIDA MEDITERRANEO, 16, 03600, Elda, Alicante","products":{"Nuevo Gasoleo A":{"price":1.23,"rank":2}},"rank":2},{"id":13688,"name":"REPSOL","lat":38.470083,"lng":-0.80625,"address":"AVENIDA CENTRO EXCURSIONISTA, S\/N, 03600, Elda, Alicante","products":{"Nuevo Gasoleo A":{"price":1.28,"rank":2}},"rank":2},{"id":3528,"name":"REPSOL","lat":38.478556,"lng":-0.802222,"address":"AVENIDA MONOVAR, 10, 03600, Elda, Alicante","products":{"Gasolina 95 Protección":{"price":1.32,"rank":3}},"rank":3},{"id":10299,"name":"BDMED ELDA","lat":38.461722,"lng":-0.816472,"address":"POLIGONO CL ITALIA, ESQUINA CL IRLANDA PARC., 32, 03600, Elda, Alicante","products":{"Gasolina 95 Protección":{"price":1.21,"rank":3}},"rank":3},{"id":13032,"name":"PETROPRIX","lat":38.533194,"lng":-0.172639,"address":"AVENIDA PICASSO, 41, 03509, Finestrat, Alicante","products":{"Gasolina 95 Protección":{"price":1.22,"rank":3}},"rank":3},{"id":3697,"name":"REPSOL","lat":38.538722,"lng":-0.172889,"address":"AVENIDA FEDERICO GARCIA LORCA, 21, 03509, Finestrat, Alicante","products":{"Nuevo Gasoleo A":{"price":1.29,"rank":2}},"rank":2},{"id":12061,"name":"REPSOL","lat":38.533722,"lng":-0.17275,"address":"AVENIDA PICASSO, 3, 03509, Finestrat, Alicante","products":{"Nuevo Gasoleo A":{"price":1.29,"rank":2}},"rank":2},{"id":1951,"name":"CARREFOUR","lat":38.537389,"lng":-0.175167,"address":"CARRETERA NUEVA FINESTRATA LA CALA KM. 5, 03509, Finestrat, Alicante","products":{"Nuevo Gasoleo A":{"price":1.24,"rank":2}},"rank":2},{"id":11126,"name":"ZARCAR","lat":38.536444,"lng":-0.180222,"address":"AVENIDA PAIS VALENCIA, 20, 03509, Finestrat, Alicante","products":{"Nuevo Gasoleo A":{"price":1.25,"rank":2}},"rank":2},{"id":11913,"name":"CEPSA","lat":38.534806,"lng":-0.16975,"address":"AVENIDA AUXIAS MARCH, SN, 03509, Finestrat, Alicante","products":{"Nuevo Gasoleo A":{"price":1.24,"rank":2}},"rank":2},{"id":3644,"name":"BP LOS PALACIOS","lat":38.087889,"lng":-0.730694,"address":"CALLE ACEQUIA DEL RIO, 37, 03179, Formentera del Segura, Alicante","products":{"Nuevo Gasoleo A":{"price":1.31,"rank":2}},"rank":2},{"id":3655,"name":"REPSOL","lat":38.768111,"lng":0.098639,"address":"CARRETERA N-332 KM. 187,5, 03740, Gata de Gorgos, Alicante","products":{"Nuevo Gasoleo A":{"price":1.3,"rank":2}},"rank":2},{"id":1942,"name":"GALP","lat":38.156,"lng":-0.889806,"address":"AVENIDA JUAN CARLOS I, S\/N, 03348, Granja de Rocamora, Alicante","products":{"Nuevo Gasoleo A":{"price":1.27,"rank":2}},"rank":2},{"id":3443,"name":"CEPSA ","lat":38.062278,"lng":-0.673472,"address":"CARRETERA CV 895 KM. 5,1, 03140, Guardamar del Segura, Alicante","products":{"Nuevo Gasoleo A":{"price":1.3,"rank":2}},"rank":2},{"id":3694,"name":"REPSOL","lat":38.095639,"lng":-0.659111,"address":"CL MADRID, 20-24, 03140, Guardamar del Segura, Alicante","products":{"Nuevo Gasoleo A":{"price":1.29,"rank":2}},"rank":2},{"id":11392,"name":"ALETAC","lat":38.099472,"lng":-0.663861,"address":"CARRETERA N-332 KM. 32,7, 03140, Guardamar del Segura, Alicante","products":{"Nuevo Gasoleo A":{"price":1.29,"rank":2}},"rank":2},{"id":9303,"name":"CEPSA","lat":38.045,"lng":-0.659222,"address":"CARRETERA NACIONAL 332 KM. 65,968, 03140, Guardamar del Segura, Alicante","products":{"Nuevo Gasoleo A":{"price":1.29,"rank":2}},"rank":2},{"id":3657,"name":"ALETAC","lat":38.099333,"lng":-0.664444,"address":"CARRETERA N-332 KM. 32,7, 03140, Guardamar del Segura, Alicante","products":{"Gasolina 95 Protección":{"price":1.26,"rank":3}},"rank":3},{"id":3572,"name":"REPSOL","lat":38.310167,"lng":-0.849528,"address":"AVINGUDA VIRGEN DE LAS NIEVES, S\/N, 03688, Hondón de las Nieves, Alicante","products":{"Nuevo Gasoleo A":{"price":1.28,"rank":2}},"rank":2},{"id":1911,"name":"SANTA CRUZ","lat":38.277611,"lng":-0.920417,"address":"CARRETERA CTRA. ARCHENA KM. 32, 03689, Hondón de los Frailes, Alicante","products":{"Nuevo Gasoleo A":{"price":1.2,"rank":2}},"rank":2},{"id":11271,"name":"CEPSA","lat":38.607972,"lng":-0.593472,"address":"CALLE LEON (POLIGONO INDUSTRIAL L ALFAÇ III, 3, 03440, Ibi, Alicante","products":{"Nuevo Gasoleo A":{"price":1.29,"rank":2}},"rank":2},{"id":13130,"name":"MAJOS GASOLEOS","lat":38.615278,"lng":-0.606444,"address":"CARRETERA CV-806 KM. 5,5, 03440, Ibi, Alicante","products":{"Nuevo Gasoleo A":{"price":1.24,"rank":2}},"rank":2},{"id":3635,"name":"REPSOL","lat":38.626556,"lng":-0.567917,"address":"AVENIDA JUAN CARLOS I, 2, 03440, Ibi, Alicante","products":{"Nuevo Gasoleo A":{"price":1.31,"rank":2}},"rank":2},{"id":3467,"name":"IBI","lat":38.6165,"lng":-0.585583,"address":"AV DE LA PROVIDENCIA S\/N, 03440, Ibi, Alicante","products":{"Nuevo Gasoleo A":{"price":1.31,"rank":2}},"rank":2},{"id":10305,"name":"E.S. CAÑIZARES","lat":38.616889,"lng":-0.585333,"address":"AVENIDA LA PROVINCIA, N, 03440, Ibi, Alicante","products":{"Gasolina  98":{"price":1.42,"rank":3}},"rank":3},{"id":10463,"name":"BP. JACARILLA","lat":38.041222,"lng":-0.855611,"address":"CARRETERA CV-95 KM. 10, 03310, Jacarilla, Alicante","products":{"Gasolina  98":{"price":1.4,"rank":3}},"rank":3},{"id":10026,"name":"PETROBENE","lat":38.062972,"lng":-0.859028,"address":"CARRETERA JACARILLA-BENEJUZAR KM. 2,5, 03310, Jacarilla, Alicante","products":{"Gasolina 95 Protección":{"price":1.33,"rank":3}},"rank":3},{"id":10976,"name":"A.ESTELA","lat":38.738444,"lng":-0.009028,"address":"AVDA. GENERALITAT VALENCIANA, 4, 03727, Jalón\/Xaló, Alicante","products":{"Nuevo Gasoleo A":{"price":1.28,"rank":2}},"rank":2},{"id":3448,"name":"BP","lat":38.74075,"lng":0.150944,"address":"CARRETERA JAVEA BENITACHELL KM. 7,093, 03730, Jávea\/Xàbia, Alicante","products":{"Nuevo Gasoleo A":{"price":1.3,"rank":2}},"rank":2},{"id":11685,"name":"CEPSA","lat":38.784944,"lng":0.178667,"address":"AVENIDA DEL PLA, 77, 03730, Jávea\/Xàbia, Alicante","products":{"Nuevo Gasoleo A":{"price":1.24,"rank":2}},"rank":2},{"id":3474,"name":"PETRONOR","lat":38.776083,"lng":0.119861,"address":"CARRETERA CV-734 KM. 4,6, 03730, Jávea\/Xàbia, Alicante","products":{"Nuevo Gasoleo A":{"price":1.29,"rank":2}},"rank":2},{"id":3472,"name":"REPSOL","lat":38.781861,"lng":0.179444,"address":"CARRETERA CV-739 KM. 1,5, 03730, Jávea\/Xàbia, Alicante","products":{"Nuevo Gasoleo A":{"price":1.29,"rank":2}},"rank":2},{"id":3682,"name":"REPSOL","lat":38.785444,"lng":0.159972,"address":"AVENIDA VALENCIA, SN, 03730, Jávea\/Xàbia, Alicante","products":{"Nuevo Gasoleo A":{"price":1.29,"rank":2}},"rank":2},{"id":3529,"name":"REPSOL","lat":38.79425,"lng":0.177222,"address":"AVENIDA DEL PUERTO, 36, 03730, Jávea\/Xàbia, Alicante","products":{"Nuevo Gasoleo A":{"price":1.29,"rank":2}},"rank":2},{"id":3681,"name":"REPSOL","lat":38.770556,"lng":0.186361,"address":"CARRETERA CV-739 KM. 2,9, 03730, Jávea\/Xàbia, Alicante","products":{"Nuevo Gasoleo A":{"price":1.29,"rank":2}},"rank":2},{"id":12760,"name":"ECO COMBUSTIBLE 24H LOW COST","lat":38.785667,"lng":0.174972,"address":"CALLE BRUSELAS, 4, 03730, Jávea\/Xàbia, Alicante","products":{"Gasolina 95 Protección":{"price":1.26,"rank":3}},"rank":3},{"id":3426,"name":"CEPSA","lat":38.534028,"lng":-0.505083,"address":"CALLE FRANCESC NIOLAU MIRA MIRALLES, S\/N, 03100, Jijona\/Xixona, Alicante","products":{"Nuevo Gasoleo A":{"price":1.29,"rank":2}},"rank":2},{"id":3424,"name":"CEPSA","lat":38.369306,"lng":-0.704611,"address":"AUTOVIA A-31 KM. 220, 03670, Monforte del Cid, Alicante","products":{"Nuevo Gasoleo A":{"price":1.3,"rank":2}},"rank":2},{"id":3425,"name":"CEPSA","lat":38.369833,"lng":-0.704556,"address":"AUTOVIA A-31 KM. 220, 03670, Monforte del Cid, Alicante","products":{"Nuevo Gasoleo A":{"price":1.3,"rank":2}},"rank":2},{"id":3607,"name":"BP","lat":38.387917,"lng":-0.736806,"address":"AUTOVIA A-31 KM. 216, 03670, Monforte del Cid, Alicante","products":{"Nuevo Gasoleo A":{"price":1.3,"rank":2}},"rank":2},{"id":12152,"name":"BP","lat":38.376306,"lng":-0.773694,"address":"GLORIETA JORGE JUAN, 86, 03670, Monforte del Cid, Alicante","products":{"Nuevo Gasoleo A":{"price":1.3,"rank":2}},"rank":2},{"id":7979,"name":"COOPERATIVA V. AGRICOLA MONFORTE DEL CID","lat":38.380861,"lng":-0.723111,"address":"CAMINO CAMINO AZAGADOR, 2, 03670, Monforte del Cid, Alicante","products":{"Gasoleo A":{"price":1.19,"rank":3}},"rank":3},{"id":3554,"name":"REPSOL","lat":38.424667,"lng":-0.940028,"address":"CARRETERA CR 3213 KM. 12, 03640, Monóvar\/Monòver, Alicante","products":{"Nuevo Gasoleo A":{"price":1.28,"rank":2}},"rank":2},{"id":3564,"name":"PETRONOR","lat":38.434222,"lng":-0.839861,"address":"AVENIDA COMUNIDAD VALENCIANA, SN, 03640, Monóvar\/Monòver, Alicante","products":{"Nuevo Gasoleo A":{"price":1.28,"rank":2}},"rank":2},{"id":10300,"name":"E.S. TEXAS","lat":38.428444,"lng":-0.838083,"address":"CARRETERA NOVELDA-MONOVAR KM. 9,6, 03640, Monóvar\/Monòver, Alicante","products":{"Nuevo Gasoleo A":{"price":1.21,"rank":2}},"rank":2},{"id":3460,"name":"REPSOL","lat":38.029472,"lng":-0.730944,"address":"CR CV-945  LO BLANC, 1,3 (A-340 km 1,36), 03187, Montesinos (Los), Alicante","products":{"Nuevo Gasoleo A":{"price":1.3,"rank":2}},"rank":2},{"id":11765,"name":"CEPSA","lat":38.782028,"lng":-0.424694,"address":"CARRETERA CV 700 KM. 6, 03830, Muro de Alcoy, Alicante","products":{"Nuevo Gasoleo A":{"price":1.29,"rank":2}},"rank":2},{"id":3633,"name":"CEPSA","lat":38.781417,"lng":-0.447889,"address":"CARRETERA N-340 KM. 808,6, 03830, Muro de Alcoy, Alicante","products":{"Nuevo Gasoleo A":{"price":1.29,"rank":2}},"rank":2},{"id":3634,"name":"CEPSA","lat":38.781889,"lng":-0.448444,"address":"CARRETERA N-340 KM. 808,6, 03830, Muro de Alcoy, Alicante","products":{"Nuevo Gasoleo A":{"price":1.29,"rank":2}},"rank":2},{"id":3418,"name":"CEPSA","lat":38.426222,"lng":-0.449833,"address":"AVENIDA ALCOY, S\/N, 03110, Mutxamel, Alicante","products":{"Nuevo Gasoleo A":{"price":1.29,"rank":2}},"rank":2},{"id":3419,"name":"CEPSA","lat":38.426528,"lng":-0.450361,"address":"AVENIDA ALCOY, S\/N, 03110, Mutxamel, Alicante","products":{"Nuevo Gasoleo A":{"price":1.29,"rank":2}},"rank":2},{"id":12827,"name":"BP OIL ESPAÑA","lat":38.407,"lng":-0.463917,"address":"CALLE OSSA MAJOR, 1, 03110, Mutxamel, Alicante","products":{"Nuevo Gasoleo A":{"price":1.3,"rank":2}},"rank":2},{"id":11920,"name":"BP","lat":38.4245,"lng":-0.431389,"address":"PARTIDA SAN PERET, 26, 03110, Mutxamel, Alicante","products":{"Nuevo Gasoleo A":{"price":1.3,"rank":2}},"rank":2},{"id":3710,"name":"BP","lat":38.38825,"lng":-0.755694,"address":"AVENIDA RIO VINALOPO, 1, 03660, Novelda, Alicante","products":{"Nuevo Gasoleo A":{"price":1.3,"rank":2}},"rank":2},{"id":3650,"name":"REPSOL","lat":38.381194,"lng":-0.770667,"address":"AVENIDA REYES CATOLICOS, 115, 03660, Novelda, Alicante","products":{"Nuevo Gasoleo A":{"price":1.3,"rank":2}},"rank":2},{"id":3569,"name":"REPSOL","lat":38.386417,"lng":-0.758389,"address":"AVENIDA PEREZ GALDOS, 2, 03660, Novelda, Alicante","products":{"Nuevo Gasoleo A":{"price":1.3,"rank":2}},"rank":2},{"id":1936,"name":"BP","lat":38.385639,"lng":-0.776833,"address":"POLIGONO SANTA FE C\/1 ESQUINA C\/2, 1,2, 03660, Novelda, Alicante","products":{"Nuevo Gasoleo A":{"price":1.3,"rank":2}},"rank":2},{"id":13530,"name":"GALP ","lat":38.390028,"lng":-0.752167,"address":"AVENIDA JESUS NAVARRO JOVER, 13, 03660, Novelda, Alicante","products":{"Gasolina 95 Protección":{"price":1.26,"rank":3}},"rank":3},{"id":3516,"name":"INUBEL - NOVELDA,BP","lat":38.376333,"lng":-0.771333,"address":"AVENIDA REYES CATOLICOS, 152, 03360, Novelda, Alicante","products":{"Nuevo Gasoleo A":{"price":1.3,"rank":2}},"rank":2},{"id":3734,"name":"GALP","lat":38.603028,"lng":-0.129556,"address":"P.I. La Nucia - Parcela 16, 03530, Nucia (la), Alicante","products":{"Nuevo Gasoleo A":{"price":1.31,"rank":2}},"rank":2},{"id":14163,"name":"PLENOIL","lat":38.6055,"lng":-0.129361,"address":"AVENIDA MARINA BAIXA, 112, 03530, Nucia (la), Alicante","products":{"Gasolina 95 Protección":{"price":1.22,"rank":3}},"rank":3},{"id":3481,"name":"REPSOL","lat":38.616167,"lng":-0.123944,"address":"CL AVENIDA MARINA BAIXA, 80, 03530, Nucia (la), Alicante","products":{"Nuevo Gasoleo A":{"price":1.28,"rank":2}},"rank":2},{"id":10465,"name":"EL MIRADOR - LA GALIA","lat":38.589639,"lng":-0.1245,"address":"CARRETERA CV-70 PARTIDA FOIA COMP KM. 5,3, 03530, Nucia (la), Alicante","products":{"Nuevo Gasoleo A":{"price":1.3,"rank":2}},"rank":2},{"id":3616,"name":"REPSOL","lat":38.82825,"lng":0.01475,"address":"CARRETERA N-332 KM. 198, 03760, Ondara, Alicante","products":{"Nuevo Gasoleo A":{"price":1.3,"rank":2}},"rank":2},{"id":12384,"name":"CARREFOUR","lat":38.817917,"lng":0.020833,"address":"CALLE ELS POBLETS, 10, 03760, Ondara, Alicante","products":{"Nuevo Gasoleo A":{"price":1.21,"rank":2}},"rank":2},{"id":13307,"name":"LOW COST 24H","lat":38.817917,"lng":0.0185,"address":"CALLE SAGRA, 3, 03760, Ondara, Alicante","products":{"Gasolina 95 Protección":{"price":1.27,"rank":3}},"rank":3},{"id":3459,"name":"BP","lat":38.626278,"lng":-0.6815,"address":"CALLE JAIME I, 10, 03430, Onil, Alicante","products":{"Gasolina 95 Protección":{"price":1.26,"rank":3}},"rank":3},{"id":11842,"name":" T. ALBERO","lat":38.612972,"lng":-0.670417,"address":"CALLE POL LA MARJAL C\/LLEBEIG, 21, 03430, Onil, Alicante","products":{"Gasolina  98":{"price":1.42,"rank":3}},"rank":3},{"id":12170,"name":"BP","lat":38.613444,"lng":-0.669667,"address":"CALLE P.I. LA MARJAL - C\/ GREGAL, S\/N, 03430, Onil, Alicante","products":{"Nuevo Gasoleo A":{"price":1.32,"rank":2}},"rank":2},{"id":3573,"name":"GASORBA","lat":38.771694,"lng":-0.06225,"address":"CARRETERA CV-715 KM. 21,5, 03790, Orba, Alicante","products":{"Gasolina  98":{"price":1.4,"rank":3}},"rank":3},{"id":3696,"name":"REPSOL","lat":38.106222,"lng":-0.93175,"address":"CARRETERA N-340 KM. 688,6, 03300, Orihuela, Alicante","products":{"Nuevo Gasoleo A":{"price":1.32,"rank":2}},"rank":2},{"id":11655,"name":"BP","lat":37.926694,"lng":-0.735556,"address":"URBANIZACIÓN VILLAMARTIN NORTE, S, 03300, Orihuela, Alicante","products":{"Nuevo Gasoleo A":{"price":1.32,"rank":2}},"rank":2},{"id":3535,"name":"PETRONOR","lat":38.082583,"lng":-0.954111,"address":"CV-915 km 1, 03300, Orihuela, Alicante","products":{"Nuevo Gasoleo A":{"price":1.3,"rank":2}},"rank":2},{"id":3422,"name":"CEPSA","lat":38.087278,"lng":-0.936083,"address":"CARRETERA ALMORADI KM. 0,2, 03300, Orihuela, Alicante","products":{"Nuevo Gasoleo A":{"price":1.29,"rank":2}},"rank":2},{"id":3450,"name":"CEPSA","lat":38.086917,"lng":-0.936139,"address":"CARRETERA ALMORADI KM. 0,2, 03300, Orihuela, Alicante","products":{"Nuevo Gasoleo A":{"price":1.29,"rank":2}},"rank":2},{"id":9435,"name":"BP. (CAPUCHINOS)","lat":38.090444,"lng":-0.952417,"address":"CALLE CAPUCHINOS, S\/N, 03300, Orihuela, Alicante","products":{"Nuevo Gasoleo A":{"price":1.33,"rank":2}},"rank":2},{"id":3601,"name":"BP. (EL LIMONAR)","lat":38.081639,"lng":-0.937167,"address":"CALLE PROLONGACION OBISPO ROCAMORA, S\/N, 03300, Orihuela, Alicante","products":{"Nuevo Gasoleo A":{"price":1.33,"rank":2}},"rank":2},{"id":3440,"name":"BP. LA APARECIDA DE ORIHUELA","lat":38.081361,"lng":-0.994056,"address":"CARRETERA NACION-340-R AB KM. 19,6, 03300, Orihuela, Alicante","products":{"Nuevo Gasoleo A":{"price":1.33,"rank":2}},"rank":2},{"id":9801,"name":"BP. SAN BARTOLOME LA CAMPANETA","lat":38.090833,"lng":-0.878889,"address":"CARRETERA A-304 KM. 5,45, 03300, Orihuela, Alicante","products":{"Nuevo Gasoleo A":{"price":1.33,"rank":2}},"rank":2},{"id":10464,"name":"BP. SAN BARTOLOME  LA CAMPANETA ","lat":38.0915,"lng":-0.878611,"address":"CARRETERA A-304 KM. 5,45, 03300, Orihuela, Alicante","products":{"Nuevo Gasoleo A":{"price":1.34,"rank":3}},"rank":3},{"id":9433,"name":"ORIGAS (MONTEPINAR)","lat":38.119528,"lng":-0.954556,"address":"CARRETERA AV-4141 KM. 0,9, 03300, Orihuela, Alicante","products":{"Nuevo Gasoleo A":{"price":1.24,"rank":2}},"rank":2},{"id":1894,"name":"REVISOIL","lat":38.089806,"lng":-0.848778,"address":"CARRETERA CV-914 KM. 8,200, 03300, Orihuela, Alicante","products":{"Nuevo Gasoleo A":{"price":1.24,"rank":2}},"rank":2},{"id":3626,"name":"NO ROTULO","lat":38.091285,"lng":-0.953199,"address":"PLAZA CAPUCHINOS, S.N., 03300, Orihuela, Alicante","products":{"Gasolina  98":{"price":1.4,"rank":3}},"rank":3},{"id":9103,"name":"SHELL","lat":38.063444,"lng":-0.983722,"address":"CARRETERA BENIEL DESAM KM. 3,7, 03312, Orihuela, Alicante","products":{"Nuevo Gasoleo A":{"price":1.29,"rank":2}},"rank":2},{"id":3433,"name":"CEPSA","lat":38.047111,"lng":-0.962861,"address":"CARRETERA ARNEVA - EL MOJON KM. 5,800, 03312, Orihuela, Alicante","products":{"Nuevo Gasoleo A":{"price":1.29,"rank":2}},"rank":2},{"id":10754,"name":"EL TANQUE","lat":38.055694,"lng":-0.937139,"address":"CALLE EL PINAR, 9, 03312, Orihuela, Alicante","products":{"Gasolina  98":{"price":1.49,"rank":3}},"rank":3},{"id":9860,"name":"REPSOL","lat":38.107,"lng":-0.864722,"address":"CARRETERA CV911 KM. 1,5, 03314, Orihuela, Alicante","products":{"Nuevo Gasoleo A":{"price":1.28,"rank":2}},"rank":2},{"id":12024,"name":"EASYGAS","lat":37.946167,"lng":-0.716139,"address":"CARRETERA NACIONAL 332 KM. 53,5, 03315, Orihuela, Alicante","products":{"Nuevo Gasoleo A":{"price":1.11,"rank":1}},"rank":1},{"id":12218,"name":"COMBUSTIBLES LA MURADA","lat":38.167194,"lng":-0.963611,"address":"CARRETERA VILLAMARIA KM. 1, 03315, Orihuela, Alicante","products":{"Nuevo Gasoleo A":{"price":1.16,"rank":1}},"rank":1},{"id":13918,"name":"BP","lat":37.918,"lng":-0.754444,"address":"CALLE CABO CREUS, 2, 03189, Orihuela, Alicante","products":{"Nuevo Gasoleo A":{"price":1.32,"rank":2}},"rank":2},{"id":3582,"name":"CEPSA","lat":37.902667,"lng":-0.760833,"address":"CARRETERA N-332 KM. 46, 03189, Orihuela, Alicante","products":{"Nuevo Gasoleo A":{"price":1.29,"rank":2}},"rank":2},{"id":11140,"name":"CEPSA","lat":37.94325,"lng":-0.718028,"address":"CARRETERA N-332 KM. 52,1, 03189, Orihuela, Alicante","products":{"Nuevo Gasoleo A":{"price":1.29,"rank":2}},"rank":2},{"id":12307,"name":"ALCAMPO","lat":37.930444,"lng":-0.736278,"address":"CALLE JADE, 1, 03189, Orihuela, Alicante","products":{"Nuevo Gasoleo A":{"price":1.16,"rank":1}},"rank":1},{"id":3703,"name":"CEPSA","lat":37.903583,"lng":-0.761083,"address":"CARRETERA N-332 KM. 47, 03189, Orihuela, Alicante","products":{"Nuevo Gasoleo A":{"price":1.29,"rank":2}},"rank":2},{"id":3457,"name":"REPSOL","lat":38.800111,"lng":0.038889,"address":"CL AVENIDA JAON CARLES I, 27, 03750, Pedreguer, Alicante","products":{"Nuevo Gasoleo A":{"price":1.3,"rank":2}},"rank":2},{"id":3718,"name":"CEPSA","lat":38.792028,"lng":0.06275,"address":"AUTOPISTA AP-7 (MRG.IZDO.) KM. 613,2, 03750, Pedreguer, Alicante","products":{"Nuevo Gasoleo A":{"price":1.34,"rank":3}},"rank":3},